qid,name,address,zip,lat,long,url
2727,"Centre de vaccination - Parc d'activité Saint-Ouen-l’Aumône","19 Avenue de l’Eguillette",95572,49.0532,2.133,
55,"Plateau de consultations du service de maladies infectieuses - ANGERS -professionnels de santé extérieurs au CHU","4 Rue Larrey",49007,47.4816,-0.554632,https://partners.doctolib.fr/hopital-public/angers/chu-d-angers-centre-de-vaccination-reserve-aux-professionnels-de-sante-de-l-etablissement?speciality_id=5494&enable_cookies_consent=1
2660,SDIS,"5 Rue Hippolyte Malegue",43157,45.0142,3.90514,
2531,"UHSI Lille","5 Avenue Oscar Lambret",59350,50.61,3.03764,
1220,"Centre de vaccination - Centre de soins non programmés - Ville d'Andrézieux-Bouthéon","14 Rue Claude Limousin",42005,45.526,4.25364,https://partners.doctolib.fr/centre-de-vaccinations-internationales/andrezieux-boutheon/centre-de-vaccination-covid-19-andrezieux-boutheon?pid=practice-165752&enable_cookies_consent=1
347,"Centre de vaccination - Salle François Mitterrand","5001 F Rue René Cassin",62427,50.41,2.9632,https://partners.doctolib.fr/espic-etablissement-de-sante-prive-d-interet-collectif/valenciennes-divion-henin-beaumont-lievin/groupe-ahnac?pid=practice-182024&enable_cookies_consent=1
440,"Centre de Vaccination - MAYENNE - Salle polyvalente"," Rue Volney",53147,48.2969,-0.611258,https://partners.doctolib.fr/maison-de-sante/mayenne/pole-de-sante-de-mayenne-centre-de-vaccination?pid=practice-181021&enable_cookies_consent=1
345,"Centre de vaccination - CH Calais, Salle polyvalente de l’EHPAD la Roselière, ","1601 Boulevard des Justes",62193,50.9398,1.89115,https://partners.doctolib.fr/vaccination-covid-19/calais/ght-cote-d-opale-vaccination-covid-ch-calais-ehpad-la-roseliere?pid=practice-163842&enable_cookies_consent=1
634,"Centre Municipal de Santé de L'Hay Les Roses","73 Avenue Larroumes",94038,48.7754,2.32599,https://partners.doctolib.fr/vaccination-covid-19/l-hay-les-roses/centre-de-vaccination-covid-19-l-hay-les-roses?pid=practice-2134&enable_cookies_consent=1
832,"Centre de Tir à l’Arc"," Chemin des Archets",83023,43.4139,6.06498,https://partners.doctolib.fr/vaccination-covid-19/brignoles/centre-de-vaccination-covid-19-du-var-brignoles?pid=practice-165073&enable_cookies_consent=1
236,"Centre de vaccination - CH Chauny","94 Rue Anciens Combattants Afn Tom",02173,49.6258,3.23436,https://partners.doctolib.fr/vaccination-covid-19/chauny/centre-de-vaccination-covid-19-ch-de-chauny?pid=practice-39705&enable_cookies_consent=1
1005,"CH René Muret","1 Avenue du Docteur Schaffner",93071,48.9362,2.5106,https://partners.doctolib.fr/vaccination-covid-19/sevran/centre-de-vaccination-rene-muret-ap-hp?pid=practice-31581&enable_cookies_consent=1
1582,"Centre de  vaccination CH de Cavaillon","119 Avenue Georges Clémenceau",84035,43.8401,5.03799,https://partners.doctolib.fr/vaccination-covid-19/cavaillon/centre-hospitalier-intercommunal-cavaillon-lauris-vaccination-covid-19-cavaillon?pid=practice-167685&enable_cookies_consent=1
2000,"Centre de Vaccination d'Arette","2 Place de la Mairie",64040,43.0952,-0.716466,https://partners.doctolib.fr/vaccination-covid-19/arette/centre-de-vaccination-covid-19-arette?pid=practice-176246&enable_cookies_consent=1
1008,"Centre de vaccination de Mulhouse - Gymnase universitaire","3 Rue des Frères Lumière",68224,47.7326,7.31648,https://partners.doctolib.fr/centre-de-sante/mulhouse/centre-de-vaccination-de-mulhouse?pid=practice-164975?speciality_id=5494&enable_cookies_consent=1
562,"Centre vaccination LOUHANS/BRANGES - Salle du Marais","155 Route du Bourg",71056,46.6459,5.16922,https://partners.doctolib.fr/centre-de-sante/louhans/centre-de-vaccination-de-louhans?speciality_id=5494&enable_cookies_consent=1
2496,"Centre de Vaccination - REZE - Trocardière"," Rue de la Trocardière",44143,47.1799,-1.57102,https://partners.doctolib.fr/vaccination-covid-19/trocardiere/vaccination-covid-19-treillieres-sdis-44?pid=practice-184335&enable_cookies_consent=1
1225,"Centre de vaccination UGECAM d'Illkirch-Graffenstaden ","10 Avenue Achille Baumann",67218,48.5379,7.72465,https://partners.doctolib.fr/centre-de-sante/illkirch-graffenstaden/centre-de-vaccination-covid-d-illkirch?speciality_id=5494&enable_cookies_consent=1
209,"Centre de vaccination Sélestat -Les Tanzmatten ","10 Quai de l'Ill ",67462,48.2566,7.45774,https://partners.doctolib.fr/centre-de-vaccinations-internationales/selestat/centre-de-vaccination-covid-19-ville-de-selestat?speciality_id=5494&enable_cookies_consent=1
582,"Louviers : maison des sports et associations","10 Avenue du Maréchal Leclerc",27375,49.208,1.15292,https://partners.doctolib.fr/hopital-public/evreux/ch-eure-seine-centre-de-vaccination-covid-vacci-covid-27?pid=practice-164880&?speciality_id=5494&enable_cookies_consent=1
2235,"Grand centre 70","3 Gymnase Lasalle, Place René Hologne",70550,47.6211,6.15102,https://partners.doctolib.fr/centre-de-sante/vesoul/centre-de-vaccination-covid-19-grand-centre-70?pid=practice-183959&enable_cookies_consent=1
2215,"Grand centre LE MANS "," Avenue du Parc des Expositions",72181,47.9569,0.203398,https://partners.doctolib.fr/centre-de-sante/le-mans/centre-de-vaccination-la-rotonde-du-centre-des-exposition-du-mans?pid=practice-182151&enable_cookies_consent=1
2532,"UHSA LILLE SECLIN","2 Avenue Oscar Lambret",59350,50.61,3.03764,
2630,"SOS Médecin","20 Avenue de l’Île de France",25056,47.221,5.96605,https://partners.doctolib.fr/vaccination-covid-19/besancon/centre-de-vaccination-sos-medecin-besancon?pid=practice-187215&enable_cookies_consent=1
2533,"UHSI NANCY","29 Av du Mal de Lattre de Tassigny",54395,48.6839,6.18941,
23,"Centre de vaccination du CH Troyes( ancien LIDL)"," Av du Mal de Lattre de Tassigny",10387,48.3047,4.09398,https://partners.doctolib.fr/centre-de-sante/troyes/centre-de-vaccination-covid-troyes-champagne-metropole-ex-lidl?speciality_id=5494&enable_cookies_consent=1
1284,"Lieu de vaccination FRESNES EN WOEVRE - MSP","16 bis Rue des Eparges",55198,49.0945,5.62516,https://www.maiia.com/centre-de-vaccination/55160-fresnes-en-woevre/centre-de-vaccination---fresnes-en-woevre
1302,"GOUAREC - Bel Air"," Rue de Bel Air",22064,48.2292,-3.1933,https://vaccination-covid.keldoc.com/cabinet-medical/gouarec-22570/salle-des-fetes-rostrenen/salle-des-fetes-rostrenen?cabinet=17001&specialty=144
592,"Centre Municipal de Santé - Gymnase Maurice Baquet","6 Rue Honoré d’Estienne d’Orves",93055,48.8911,2.40652,https://partners.doctolib.fr/centre-de-sante/pantin/centre-de-vaccination-covid-pantin?pid=practice-165023?speciality_id=5494&enable_cookies_consent=1
1657,"Centre de vaccination - Centre municipal de santé","39 Allée Bellevue",93063,48.8862,2.44059,https://www.maiia.com/centre-de-vaccination/93230-romainville/centre-de-vaccination-de-romainville
1176,"Centre de vaccination du Centre hospitalier de Givors","9 Avenue du Professeur Fleming",69091,45.5998,4.76553,https://partners.doctolib.fr/centre-de-sante/givors/centre-vaccination-covid-ch-de-givors?speciality_id=5494&enable_cookies_consent=1
1175,"Centre de vaccination  La Bourse de Strasbourg ","1 Place du Maréchal de Lattre de Tassigny",67482,48.5762,7.75342,https://partners.doctolib.fr/etablissement-de-prevention/strasbourg/centre-de-vaccination-covid19-de-strasbourg?speciality_id=5494&enable_cookies_consent=1
2489,"Centre de vaccination - CPTS BBH, maison communale d'animation"," Parc du Bocage",59663,50.8876,2.47735,https://partners.doctolib.fr/centre-de-sante/wormhout/centre-de-vaccin-wormhout-cchf?pid=practice-184059&enable_cookies_consent=1
2664,"Centre de vaccination de MEXY"," Rue de Lorraine",54367,49.4993,5.78128,https://partners.doctolib.fr/vaccination-covid-19/mont-saint-martin/centre-de-vaccination-covid-19-hopital-de-mont-saint-martin?pid=practice-192316&enable_cookies_consent=1
39,"Polyclinique de Franche-Comté","4 Rue Auguste Rodin",25056,47.2154,5.97953,https://partners.doctolib.fr/centre-de-sante/besancon/centre-de-vaccination-covid-19-polyclinique-franche-comte?speciality_id=5494&enable_cookies_consent=1
1585,"Centre de vaccination éphémère de Morne à l'eau","Dispensaire de  Richeval",97116,16.3427,-61.4542,https://www.maiia.com/centre-de-vaccination/97111-morne-a-l-eau/centre-de-vaccination---morne-a-l-eau-
2440,"Centre de vaccination éphémère - Centre de formation des sapeurs-pompiers de Saint -Priest ","13-15 Avenue de l’Europe",69290,45.7175,4.91799,https://partners.doctolib.fr/centre-depistage-covid/saint-priest/centre-de-vaccination-ephemere-centre-de-formation-des-sapeurs-pompiers-saint-priest-reserve-aux-enseignants-forces-de-l-ordre-et-pompiers?pid=practice-183321&enable_cookies_consent=1
1287,"Lieu de vaccination de COMMERCY (salle du Marlat)"," Rue de la Pocherie",55122,48.7561,5.58283,https://www.maiia.com/centre-de-vaccination/55200-commercy/centre-de-vaccination---commercy
1637,"Centre de vaccination - Lormont Carriet - Salle Léo Lagrange","60 Rue Lavergne",33249,44.8765,-0.523205,https://partners.doctolib.fr/centre-de-sante/lormont/centre-de-vaccination-covid-19-ville-de-lormont?pid=practice-174829&enable_cookies_consent=1
2666,"Centre Marnais de Promotion de la Santé","14 Rue du Ruisselet",51454,49.2442,4.03595,https://partners.doctolib.fr/vaccination-covid-19/reims/centre-de-vaccination-covid-19-cmps-reims?pid=practice-192487&enable_cookies_consent=1
2534,"UHSA RENNES","108 Avenue Général Leclerc",35238,48.1139,-1.63823,
2535,"UHSI RENNES ","16 2 Rue Henri le Guilloux",35000,48.1193,-1.69203,
1968,"BRUZ - Parc Expo Rennes Aéroport"," La Haie Gautrais - Accès porte B",35047,48.0571,-1.73247,https://partners.doctolib.fr/centre-de-sante/bruz/centre-de-vaccination-parc-expo-bruz?pid=practice-174988&enable_cookies_consent=1
2553,"Centre de vaccination Gymnase de l'Espace","2 Rue du Lac",25532,47.2283,6.11515,https://partners.doctolib.fr/vaccination-covid-19/saone/centre-de-vaccination-ephemere-covid-19-ville-de-saone?pid=practice-185294&enable_cookies_consent=1
1283,"Lieu de vaccination de DAMVILLERS - MSP","1 Rue de l’Abbé Mandre",55145,49.3422,5.39821,https://www.maiia.com/centre-de-vaccination/55150-damvillers/centre-de-vaccination---damvillers
65,"CH JONZAC (réservé aux professionnels de santé)","4 Avenue Winston Churchill",17197,45.4391,-0.433836,https://partners.doctolib.fr/hopital-public/haute-saintonge/centre-de-vaccination-covid-19-haute-saintonge?pid=practice-164575&enable_cookies_consent=1
15,"Grand centre de vaccination"," Rue de la Vieille Meuse",08105,49.7567,4.71338,https://partners.doctolib.fr/hopital-public/charleville-mezieres/centre-hospitalier-intercommunal-nord-ardennes-charleville-fumay-sedan?pid=practice-171700&enable_cookies_consent=1
2319,"Lieu de vaccination d' ETAIN (salle Brasse et Focosi)","11 Rue du Contour",55181,49.2141,5.63652,https://www.maiia.com/centre-de-vaccination/55400-etain/centre-de-vaccination-d--etain
2536,"UHSI BORDEAUX","12 Rue Dubernat",33522,44.8139,-0.601105,
1293,"Centre de vaccination - centre médico-social de St Barth","4 rue Augustin Ryman",97701,16.2622,-61.4466,https://www.maiia.com/centre-de-vaccination/97133-saint-barthelemy/-centre-de-vaccination---medico-social-de-saint-barthelemy
2332,"Centre de vaccination d'Arthez de Béarn","2 Place Cezaire",64057,43.4649,-0.614097,https://partners.doctolib.fr/centre-de-vaccinations-internationales/arthez-de-bearn/centre-de-vaccination-covid-arthez-de-bearn?pid=practice-180554&enable_cookies_consent=1
1336,"Centre de Vaccination Territorial et hospitalier BSAV - Gymnase Pierre Pieri","33 Avenue Marechal Leclerc",07042,44.38,4.64215,https://partners.doctolib.fr/centre-de-sante/bourg-saint-andeol/centre-de-vaccination-territorial-bourg-saint-andeol?pid=practice-166627&enable_cookies_consent=1
1589,"Centre de vaccination Molsheim ","6 Rue de la Monnaie",67300,48.5416,7.49622,https://partners.doctolib.fr/centre-de-sante/molsheim/centre-de-vaccination-covid-19-molsheim?pid=practice-173886&enable_cookies_consent=1
1611,"MSP Usson du Poitou","20 Chemin du Désert",86276,46.2759,0.533892,https://partners.doctolib.fr/centre-de-vaccinations-internationales/usson-du-poitou/centre-de-vaccination-covid-19-sisa-pole-sante?pid=practice-173641&enable_cookies_consent=1
2537,"UHSA CADILLAC","89 Rue Cazeaux-Cazalet",33081,44.6351,-0.318002,
32,"CHRU Tours / Centre de vaccination - réservé aux professionnels en exercice","5 Rue Jehan Fouquet",37261,47.389,0.682825,https://partners.doctolib.fr/hopital-public/tours/centre-de-vaccination-covid-chru-tours-reserve-aux-professionnels-de-sante?pid=practice-162207&enable_cookies_consent=1
2320,"Lieu de vaccination de Varennes en Argonne (salle polyvalente)","28 Rue de Tabur",55527,49.2252,5.03723,https://www.maiia.com/centre-de-vaccination/55270-varennes-en-argonne/centre-de-vaccination---varennes
1468,"CH de Rambouillet","7 Rue Pierre et Marie Curie",78517,48.6525,1.82661,https://partners.doctolib.fr/centre-depistage-covid/rambouillet/point-prelevement-pcr-covid-19-rambouillet?pid=practice-162600&enable_cookies_consent=1
1090,"Centre de vaccination des Rousses","281 Rue Pasteur",39470,46.4849,6.06061,https://partners.doctolib.fr/centre-de-sante/dole/ars-de-bourgogne-franche-comte?pid=practice-164052&?speciality_id=5494&enable_cookies_consent=1
2538,"UHSA TOULOUSE","134 Route d’Espagne",31555,43.5596,1.42436,
815,"Centre de vaccination du Centre Hospitalier du Mont Dore","2 Rue du Capitaine Chazotte",63236,45.5747,2.80829,https://partners.doctolib.fr/hopital-public/mont-dore/ch-du-mont-dore-centre-de-vaccination?speciality_id=5494&enable_cookies_consent=1
810,"Centre gérontologique départemental","176 Avenue de Montolivet",13204,43.3111,5.40969,https://partners.doctolib.fr/vaccination-covid-19/marseille/centre-de-vaccination-covid-cgd13-reserve-aux-professionnels-de-sante?pid=practice-164336&enable_cookies_consent=1
2728,"Centre de vaccination mobile- Bus vaccinal Pas-de-Calais"," ",62041,50.3006,2.74541,
2731,"Centre de Vaccination éphémère ROISSY-EN-BRIE (AP-HP)","6 Avenue Maurice de Vlaminck",77390,48.7945,2.65165,
767,"Evry Nougaro centre de vaccination ","10 Rue du marquis de Raies",91228,48.6277,2.41903,https://partners.doctolib.fr/centre-de-sante/evry-courcouronnes/centre-de-vaccination-covid-salle-claude-nougaro-reserve-aux-personnes-de-plus-de-75-ans?speciality_id=5494&enable_cookies_consent=1
548,"POUILLY-EN-AUXOIS espace Jean Claude Patriarche"," Ruelle du Gué",21501,47.2619,4.55727,https://partners.doctolib.fr/maison-de-sante/pouilly-en-auxois/centre-de-vaccination-pouilly-en-auxois?speciality_id=5494&enable_cookies_consent=1
303,AVICENNE,"125 Rue de Stalingrad",93008,48.9151,2.42922,https://partners.doctolib.fr/hopital-public/bobigny/centres-de-vaccination-hopital-avicenne-ap-hp?pid=practice-178755&enable_cookies_consent=1
2732,"Andros Biars-sur-Cère","2 Rue Ambroise croisat ",46029,44.9358,1.8562,
2638,"CV éphémère Jargeau"," Rue de l'echo - Salle polyvalente",45173,47.8666,2.12227,https://partners.doctolib.fr/centre-de-sante/jargeau/centre-de-vaccination-covid-19-ephemere-de-jargeau?pid=practice-192113&enable_cookies_consent=1
821,"Centre de vaccination du CH de Firminy","2 Rue Robert Plotton RDC Bâtiment L",42095,45.3875,4.28891,https://partners.doctolib.fr/centre-de-sante/firminy/centre-de-vaccination-covid-19-hopital-le-corbusier-firminy?pid=practice-186492&enable_cookies_consent=1
1048,"Hôtel de Ville de Marseille"," Quai du Port",13202,43.2959,5.37007,https://www.maiia.com/centre-de-vaccination/13002-marseille/centre-de-vaccination-covid---hotel-de-ville---ville-de-marseille
1479,"Hôtel Dieu","9 Rue de la Cité",75104,48.8543,2.34773,https://partners.doctolib.fr/hopital-public/paris/vacci-hotel-dieu-ap-hp-interne?pid=practice-164073&enable_cookies_consent=1
1038,"Centre de vaccination de l'hôpital de Die"," Rue Leon Archimbaud",26113,44.7569,5.37011,https://partners.doctolib.fr/hopital-public/die/centre-de-vaccination-covid-ch-die?speciality_id=5494&enable_cookies_consent=1
1480,"LARIBOISIERE AP-HP","2 Rue Ambroise Paré",75110,48.8823,2.35126,
1474,"CHSSM-Site de Nemours","15 Rue des Chaudins",77333,48.262,2.70465,
2733,"Ratier-Figeac  ","25 Avenue ratier ",46102,44.608,2.01456,
978,"Centre de Vaccination CH Ribérac","23 Rue Jean Moulin",24352,45.2452,0.340622,https://partners.doctolib.fr/hopital-public/riberac/centre-vaccination-ch-riberac-chicrdd?speciality_id=5494&enable_cookies_consent=1
2734,"Centre de vaccination intercommunal de Sarrebourg (gymnase COSEC)"," Rue Pierre de Coubertin",57630,48.7352,7.06863,https://partners.doctolib.fr/vaccination-covid-19/sarrebourg/cosec?pid=practice-203172&enable_cookies_consent=1
2539,"UHSI TOULOUSE","2 Rue Viguerie",31555,43.5991,1.43651,
1072,"Centre d'Arbois - espace Pasteur","6 Rue Notre Dame",39013,46.9036,5.7715,https://partners.doctolib.fr/centre-de-sante/dole/ars-de-bourgogne-franche-comte?pid=practice-182619&enable_cookies_consent=1
1475,"CHSSM-Site de Fontainebleau","55 Boulevard du Maréchal Joffre",77186,48.4119,2.6963,
1481,"SAINT-ANTOINE AP-HP","186 Rue du Faubourg Saint-Antoine",75112,48.8502,2.38312,
2540,"UHSA LYON (Simone Veil)","95 Boulevard Pinel",69029,45.7421,4.89402,
1290,"Centre de Vaccination Salle Bérégovoy  VRIGNE-AUX-BOIS","13 Avenue Jean Jaurès",08491,49.7371,4.85412,https://partners.doctolib.fr/centre-de-sante/sedan/centre-de-vaccination-covid-ars-ardennes?pid=practice-165013&enable_cookies_consent=1
1573,"EMV Saint-Denis Auberge Municipale","2 Avenue du Colonel Fabien",93066,48.9444,2.35676,
1640,"Centre de vaccination - MSP Vermenton"," Route de Tonnerre",89441,47.6678,3.74293,https://partners.doctolib.fr/centre-de-vaccinations-internationales/vermenton/centre-de-vaccination-covid-19-vermenton?pid=practice-174866&enable_cookies_consent=1
1686,"Centre de Vaccination éphémère du SDIS","5 Chemin Rural Dit des Mulets",77288,48.5542,2.63188,https://partners.doctolib.fr/centre-de-sante/melun/centre-de-vaccination-covid-19-sdis-77?pid=practice-175244&enable_cookies_consent=1
2222,"22-Grand centre de vaccination (fictif)","33 Rue Fardel",22278,48.5145,-2.76577,
1972,"Centre de vaccination - MSP AUXI-LE-CHATEAU","75 Rue du General Leclerc",62060,50.2281,2.11714,https://partners.doctolib.fr/centre-de-sante/auxi-le-chateau/centre-de-vaccination-d-auxi-le-chateau?pid=practice-178163&enable_cookies_consent=1
1476,"CHSSM-Site CH Montereau Fault Yonne","1 bis Rue Victor Hugo",77305,48.3828,2.95396,
1482,Trousseau,"26 Avenue du Docteur Arnold Netter",75112,48.8428,2.40528,
2541,"UHSI Lyon","3 Quai des Célestins",69382,45.7609,4.83149,
1595,"MSP ASFELD","2 Rue du Docteur Landes",08024,49.4626,4.11037,https://partners.doctolib.fr/centre-de-sante/sedan/centre-de-vaccination-covid-ars-ardennes?pid=practice-173996&enable_cookies_consent=1
571,"Centre de vaccination CH de Tonnerre"," chemin des Jumeriaux",89418,47.8542,3.98033,https://partners.doctolib.fr/hopital-public/tonnerre/centre-de-vaccination-covid-ch-tonnerre?speciality_id=5494&enable_cookies_consent=1
1483,"Hôpital Salpêtrière","83 Boulevard de l’Hôpital",75113,48.8387,2.36127,
2239,"Centre de vaccination COVID-19 de Deauville","29 Rue Albert Fracasse",14220,49.3588,0.0756921,https://partners.doctolib.fr/centre-de-sante/deauville/centre-de-vaccination-covid-19-de-deauville?pid=practice-179896&enable_cookies_consent=1
1547,"EMV SOS Médecins Paris 17e","2 Rue Francis Garnier",75117,48.8978,2.32656,
1463,"Centre de vaccination SDIS - LE MANS - Réservé PS","3 Avenue Henri Pierre Klotz",72181,48.0187,0.173251,https://partners.doctolib.fr/etablissement-de-prevention/le-mans/pro-de-sante-le-mans-uniquement?pid=practice-171174&enable_cookies_consent=1
2542,"Centre de vaccination de Saint-Martin (CRF)","Boulevard Dr Hubert PETIT - Galisbay",97801,18.0731,-63.0828,
2466,"Collège Pierre Gilles de Gennes","33 rue du Cerisier",51262,48.7129,4.59316,https://partners.doctolib.fr/centre-de-sante/frignicourt/centres-de-vaccination-covid-19-grand-reims-2b486118-f9d7-4497-a8d1-31a0e7551e67?pid=practice-184018&enable_cookies_consent=1
2004,"Palais des Sports","74 Rue Raymond Teisseire",13208,43.2701,5.40113,https://www.maiia.com/centre-de-vaccination/13009-marseille/centre-de-vaccination-covid---palais-des-sports---ville-de-marseille
1442,"Centre de vaccination de Moirans","1 rue Jean Jaures",39333,46.4292,5.7252,https://partners.doctolib.fr/centre-de-sante/dole/ars-de-bourgogne-franche-comte?pid=practice-171878&enable_cookies_consent=1
1273,"DOUARNENEZ - CH (réservé PS)","83 Rue Laennec",29046,48.0839,-4.31638,
1587,"Centre de Vaccination de NOUZONVILLE (Salle des fêtes de Roger Maillard)","21 Place Gambetta",08328,49.8144,4.74526,https://partners.doctolib.fr/centre-de-sante/sedan/centre-de-vaccination-covid-ars-ardennes?pid=practice-174989&enable_cookies_consent=1
1274,"SEURRE maison de santé pluriprofessionnelle ","11 Rue des Fossés",21607,46.9975,5.14846,https://partners.doctolib.fr/maison-de-sante/seurre/centre-de-vaccination-pole-de-sante-rives-de-saone?pid=practice-167163&enable_cookies_consent=1
2142,"Centre de vaccination - Commune D'AVION, Salle des sports Roger Blézel"," Rue Alexandre Gressier",62065,50.4128,2.85035,https://partners.doctolib.fr/centre-de-sante/avion/centre-de-vaccination-covid-19-avion?pid=practice-179227&enable_cookies_consent=1
1671,"Centre de vaccination - Commune de Pont Sainte Maxence,  gymnase la Salamandre rue Charles Frigaux ","223 Rue Charles Frigaux",60509,49.3004,2.5971,https://partners.doctolib.fr/centre-de-vaccinations-internationales/pont-sainte-maxence/centre-de-vaccination-covid-19-pont-sainte-maxence?pid=practice-175373&enable_cookies_consent=1
2069,"Centre Espace Culturel René Monory","1 Boulevard du Maréchal Leclerc",86137,47.0137,0.079722,https://partners.doctolib.fr/centre-de-sante/loudun/centre-de-vaccination-covid-19-espace-culturel-rene-monory?pid=practice-182249&enable_cookies_consent=1
911,"CENTRE DE ROCHEFORT","73 Rue Pierre Toufaire",17299,45.9348,-0.95908,https://partners.doctolib.fr/centre-de-vaccinations-internationales/rochefort/centre-de-vaccination-communaute-d-agglomeration-rochefort-ocean?pid=practice-164533?speciality_id=5494&enable_cookies_consent=1
2194,"Vaccinobus du Var","47 Maison de la région du Var  - Avenue Lazare Carnot",83137,43.127,5.92529,
1484,Bichat,"46 Rue Henri Huchard",75118,48.8991,2.33084,
500,"Centre de Vaccination - BLAIN - Salle des fêtes","6b Rue Pierre Morin",44015,47.4736,-1.76531,https://partners.doctolib.fr/centre-depistage-covid/blain/centre-de-vaccination-de-la-salle-des-fetes-de-blain?speciality_id=5494&enable_cookies_consent=1
286,"Centre de Poissy","53 Avenue Blanche de Castille",78498,48.9243,2.02999,https://partners.doctolib.fr/centre-depistage-covid/ile-de-france/ars-ile-de-france-vaccination-des-professionnels-de-sante?pid=practice-163036&?speciality_id=5494&enable_cookies_consent=1
1935,"Mairie du 10e","72 Rue du Faubourg Saint-Martin",75110,48.8718,2.35755,https://partners.doctolib.fr/vaccination-covid-19/paris/centre-de-vaccination-de-la-ville-de-paris-mairie-du-10e?pid=practice-176642&enable_cookies_consent=1
1649,"MORLAIX - Parc des expos de Langolvas"," Langolvas",29059,48.5869,-3.79181,https://partners.doctolib.fr/maison-de-sante/morlaix/ch-morlaix-centre-de-vaccination-covid-19?pid=practice-163107&enable_cookies_consent=1
2520,"Centre grande capacité de Montauban","4 Rue Salvador Allende",82121,44.024,1.36153,https://partners.doctolib.fr/centre-de-sante/montauban/centre-de-vaccination-covid-19-grande-capacite-de-montauban?pid=practice-185514&enable_cookies_consent=1
2738,"Centre de Vaccination éphémère MORET LOING ORVANNE","1 Route de Saint Mammès",77316,48.3735,2.82071,
1247,"Centre hospitalier de Saint-Aignan","1301 Rue de la Forêt",41198,47.2615,1.34696,https://partners.doctolib.fr/centre-de-sante/saint-aignan/centre-de-vaccination-covid-19-de-l-hopital-de-st-aignan?pid=practice-166200&enable_cookies_consent=1
1452,"CH Ambroise PARE","9 Avenue Charles de Gaulle",92012,48.849,2.23711,rdvvaccinationcovid.lmr@aphp.fr
168,"CH Pont Audemer","64 64 route de lisieux",27467,49.3467,0.514494,https://partners.doctolib.fr/hopital-public/pont-audemer/centre-de-vaccination-covid-centre-hospitalier-ch-de-la-risle?speciality_id=5494&enable_cookies_consent=1
1627,"Equipe mobile vaccination Croix-Rouge Française du Val-de-Marne","8 Rue du Coteau",94044,48.7447,2.49817,
1128,"Centre de Vaccination - LE MANS- Jean Moulin","23 Rue Robert Collet",72181,47.9754,0.219508,https://partners.doctolib.fr/centre-de-sante/le-mans/vaccination-covid-19-ctps-le-mans-agglo?pid=practice-164815&enable_cookies_consent=1
1485,"HU de Tenon (Centre Covisan 20)","4 Rue de la Chine",75120,48.8657,2.40076,https://partners.doctolib.fr/hopital-public/paris/cvc-cpts-ump?pid=practice-163361&enable_cookies_consent=1
1993,"Centre de vaccination de Guebwiller - Salle de gymnastique 1860","25 Rue de Reims",68112,47.9084,7.20714,https://partners.doctolib.fr/centre-de-sante/guebwiller/centre-de-vaccination-covid-ville-de-guebwiller?pid=practice-176830&enable_cookies_consent=1
86,"Centre de Vaccination - LE MANS- UC-IRSA","178 Avenue Bollée",72181,47.9966,0.220022,https://partners.doctolib.fr/centre-de-vaccinations-internationales/le-mans/centre-de-vaccination-uc-irsa?speciality_id=5494&enable_cookies_consent=1
2195,"Equipe Mobile CD","57 rue des longues raies",92050,48.8946,2.22835,
770,"Centre de vaccination - CH de Jean Leclaire de Sarlat","16 Route du Lot ",24520,44.8936,1.21426,https://partners.doctolib.fr/hopital-public/sarlat-la-caneda/vaccination-ch-jean-leclaire-sarlat?speciality_id=5494&enable_cookies_consent=1
2730,"Centre de Vaccination éphémère de MITRY-MORY (AP-HP)","54 Avenue Jean-Baptiste Clement",77294,48.9589,2.60219,
2736,"Barnum de Villiers sur Marne 1","2 Boulevard de Friedberg",94079,48.8302,2.53968,
2729,"Barnum du Plessis-Trévise 1","74 Avenue Ardouin",94059,48.8054,2.57815,
2555,"Centre Intercommunal des Portes de l'Ile de France à Bonnières-sur-Seine"," ",78089,49.0305,1.57865,https://partners.doctolib.fr/vaccination-covid-19/bonnieres-sur-seine/centre-de-vaccination-de-bonnieres-sur-seine?pid=practice-188375&enable_cookies_consent=1
1486,"SAINT-LOUIS AP-HP","42 Rue Bichat",75110,48.8736,2.3652,
1578,"EMV Aubervilliers","5 Rue Edouard Poisson",93001,48.9105,2.3847,
1321,"Centre de vaccination de ROCROI"," Rue de Nevers",08367,49.9251,4.5187,https://partners.doctolib.fr/centre-de-sante/sedan/centre-de-vaccination-covid-ars-ardennes?pid=practice-167723&enable_cookies_consent=1
2023,"Centre de vaccination de Audun-le-Roman  (salle Aragon)","67 Route de Briey",54029,49.3667,5.90591,https://partners.doctolib.fr/vaccination-covid-19/audun-le-roman/centre-de-vaccination-covid-19-audun-le-roman?pid=practice-188282&enable_cookies_consent=1
1853,"EPM - US de Porcheville / Etablissement spécialisé pour mineurs de Porcheville"," Chemin Rouen Paris",78501,48.9888,1.76737,
1454,"CH Antoine Béclère","157 Rue de la Porte de Trivaux",92023,48.7899,2.25372,
2741,"Centre de vaccination éphémère de Sainte-Anne","83 Avenue Hegesippe Ibene",97128,16.224,-61.3842,
1162,"Centre de vaccination Châteauneuf"," Salle François Gabard - La croix Chadenne",16090,45.5938,-0.0555531,https://partners.doctolib.fr/centre-depistage-covid/chateauneuf-sur-charente/centre-de-vaccination-chateauneuf-sur-charentes?pid=practice-165809&enable_cookies_consent=1
1629,"Centre de Vaccination de Sigean","1 place de l'Octroi",11379,43.0272,2.98213,https://partners.doctolib.fr/centre-de-sante/sigean/centre-de-vaccination-covid-19-sigean?pid=practice-173770&enable_cookies_consent=1
2742,"Centre de Vaccination éphémère Base de loisirs de Jabelines-Annet","1 La Base de Loisirs",77234,48.9127,2.73114,
115,"CH GUERET, ESPACE CREOLE","22 chemin des Amoureux",23096,46.164,1.86791,https://partners.doctolib.fr/centre-de-vaccinations-internationales/limousin/vaccination-covid-19-professionnels-de-sante?speciality_id=5494&pid=practice-163175&pid=practice-163175&enable_cookies_consent=1
455,"Clinique de Vitrolles","2 La Tuilière, 2 Rue Bel air",13117,43.4259,5.26829,https://partners.doctolib.fr/clinique-privee/vitrolles/clinique-de-vitrolles-centre-de-vaccination-covid-19?speciality_id=5494&enable_cookies_consent=1
1487,"ROBERT DEBRE Centre de vaccination","48 Boulevard Sérurier",75119,48.8786,2.40271,https://partners.doctolib.fr/centre-de-sante/paris/centre-de-vaccination-covid-19-ville-de-paris?pid=practice-181939&enable_cookies_consent=1
2318,"Centre de vaccination - SEICHES SUR LE LOIR - Hall de sport","8 Rue Henri Regnier",49333,47.5753,-0.356845,https://partners.doctolib.fr/etablissement-de-prevention/seiches-sur-le-loir/centre-de-vaccination-covid-de-seiches-sur-le-loir?pid=practice-181252&enable_cookies_consent=1
1164,"Centre de vaccination Portes du Périgord (La Rochefoucauld/Montbron/Chazelles)"," Espace Tardoire - Boulevard Bossand",16281,45.7391,0.389657,https://partners.doctolib.fr/maison-de-sante/la-rochefoucauld-en-angoumois/centre-vaccination-covid-19-maison-de-sante-val-de-tardoire?speciality_id=5494&enable_cookies_consent=1
2748,"MUSSP Chenôve","10 Rue de la Fontaine du Mail",21166,47.3002,5.01138,
2744,"Centre de vaccination éphémère - FedEx Roissy","1002 Aeroport Charles de Gaulle",95527,49.011,2.51474,
955,"Hop. privé A. Tzanck- Mougins Sophia Antipolis","120 Avenue du Docteur Maurice Donat",06085,43.6089,7.01034,https://partners.doctolib.fr/centre-de-sante/mougins/centre-de-vaccination-tzanck-mougins?speciality_id=5494&enable_cookies_consent=1
541,"CV LE FOSSAT (Pfizer)"," centre multimédia avenue de Versailles",09124,43.1751,1.40577,https://partners.doctolib.fr/centre-de-sante/fossat/centre-de-vaccination-covid-du-fossat?speciality_id=5494&enable_cookies_consent=1
1076,"Centre Maison de santé L'île Rousse"," Immeuble U Sognu, Route de Calvi",2B134,42.6281,8.92907,https://partners.doctolib.fr/maison-de-sante/l'île-rousse/centre-de-vaccination-covid-l-ile-rousse?pid=practice-165353?speciality_id=5494&enable_cookies_consent=1
1371,"MSP Mirepoix ","2 allée de Palafrugell - Salle Paul Dardier ",09194,43.0865,1.87702,https://partners.doctolib.fr/maison-de-sante/mirepoix/centre-de-vaccination-covid-19-msp-de-mirepoix?pid=practice-169767&enable_cookies_consent=1
2743,"Centre de Vaccination éphémère Ile de loisirs de Bois-le-roi","31 Quai du Marechal Leclerc",77096,48.4827,2.72222,
2740,"Pharmacie Aeroport Nice - Terminal 2","1 Boulevard du Mercantour",06088,43.6638,7.20187,
573,LORMES,"8 Rue du Panorama",58145,47.2908,3.81534,https://partners.doctolib.fr/centre-de-sante/lormes/centre-de-vaccination-de-lormes?speciality_id=5494&enable_cookies_consent=1
2673,"CD94 Créteil Pyramide","80 Avenue du Général de Gaulle",94028,48.7962,2.44801,
2317,"Centre de vaccination - BRISSAC - Complexe Sportif"," Rue du Marin",49050,47.3536,-0.445881,https://partners.doctolib.fr/centre-de-sante/brissac-loire-aubance/centre-de-vaccination-covid-19-brissac?pid=practice-180768&enable_cookies_consent=1
1456,"GHU Henri Mondor","42 Rue Gustave Eiffel",94028,48.7936,2.44907,
1451,"CHRDS Neuilly","56 Boulevard d’Argenson",92051,48.8898,2.26191,https://partners.doctolib.fr/hopital-public/neuilly-sur-seine/ch-rives-de-seine?pid=practice-15560&enable_cookies_consent=1
2739,"ANNECY BONLIEU - Salle Eugène Verdun","1 R Jean Jaures",74010,45.9022,6.12847,https://partners.doctolib.fr/vaccination-covid-19/annecy/centre-de-vaccination-covid-19-annecy-bonlieu?pid=practice-199189&enable_cookies_consent=1
1448,GHNE,"159 Rue Pdt Francois Mitterrand",91345,48.6922,2.29071,https://partners.doctolib.fr/hopital-public/longjumeau/gh-nord-essonne-site-longjumeau?pid=practice-19668&enable_cookies_consent=1
1581,"EMV Etampes","13 Rue des Marionnettes",91223,48.435,2.16132,
174,"Centre de vaccination de Metz - HIA LEGOUEST Maison médicale de garde CPTS Metz"," Rue des Frères Lacretelle",57463,49.1138,6.18648,https://partners.doctolib.fr/centre-de-sante/metz/cvcptsm-centre-de-vaccination-cpts-metz?speciality_id=5494&enable_cookies_consent=1
2676,"Moustiers-Sainte-Marie - Centre éphémère"," Avenue de Lérins",04135,43.8465,6.22142,
2745,"Centre de Vaccination éphémère BASE DE LOISIRS DE TORCY "," Route de Torcy",77479,48.8649,2.6341,
951,"Centre de vaccination Terres de Haute Charente","24 Rue de l'Hermitage",16192,45.894,0.578719,https://partners.doctolib.fr/centre-de-sante/terres-de-haute-charente/centre-de-vaccination-covid-19-terres-de-haute-charente?pid=practice-165251&enable_cookies_consent=1
2674,"EMV Groupe SOS Solidarité (Pressensé)","84 Rue Francis de Pressensé",93066,48.9249,2.37454,
1457,"Centre Hospitalier Charles Foix","7 Avenue de la République",94041,48.8039,2.39575,
1332,"Centre hospitalier Alpes Léman","558 Rte de Findrol",74087,46.141,6.32059,https://partners.doctolib.fr/hopital-public/contamine-sur-arve/chal-vaccin-covid?pid=practice-165876&enable_cookies_consent=1
1458,"Centre Hospitalier Paul Brousse","23 Avenue Paul Vaillant-Couturier",94076,48.7948,2.36372,
2292,"Clinique du Parc","9 bis Rue de la Piot",42275,45.4784,4.36788,https://partners.doctolib.fr/centre-de-sante/saint-priest-en-jarez/centre-de-vaccination-covid-19-de-la-clinique-du-parc-de-st-priest-en-jarez?pid=practice-180664&enable_cookies_consent=1
1334,"AIGNAY-LE-DUC salle Roidot"," ",21004,47.6649,4.73306,https://partners.doctolib.fr/centre-de-sante/aignay-le-duc/antenne-de-vaccination-mairie-aignay-le-duc?pid=practice-170158&enable_cookies_consent=1
2746,"Centre de Vaccination éphémère BASE DE LOISIRS BUTHIER ","35 Route d’Auxy",77060,48.2927,2.43747,
1501,"ARNAY-LE-DUC Salle Saint-Laurent","11 Rue Jean Moulin",21023,47.1304,4.48283,
1500,"Centre Hospitalier de Mayotte"," Rue Mariaze",97611,-12.7784,45.2283,
1180,"Pôle de santé Arles","11 Rue Romain Rolland",13004,43.6741,4.62594,https://partners.doctolib.fr/centre-de-sante/arles/centre-de-vaccination-covid-pole-de-sante-arles?speciality_id=5494&enable_cookies_consent=1
117,"Centre de vaccination Grand Public","188 avenue du Commando Vigan Braquet - Gymnase des Eyrieux",30028,44.159,4.62071,https://partners.doctolib.fr/centre-de-sante/bagnols-sur-ceze/centre-de-vaccination-covid-19-grand-public-bagnols-sur-ceze?speciality_id=5494&enable_cookies_consent=1
1022,"Centre vaccination Gréoux - Maison Paroissiale","230 Avenue des Aires",04094,43.757,5.8845,https://partners.doctolib.fr/centre-de-sante/gréoux-les-bains/centre-de-vaccination-cpts-verdon?pid=practice-164612?speciality_id=5494&enable_cookies_consent=1
54,"CH RUFFEC","15 Rue de l'Hôpital",16292,46.0288,0.195442,https://partners.doctolib.fr/hopital-public/ruffec/centre-de-vaccination-covid-19-ch-de-ruffec?speciality_id=5494&enable_cookies_consent=1
2407,"Grand centre état d'Evreux"," Avenue du Maréchal Foch - Halle des expositions",27229,49.0239,1.13601,https://partners.doctolib.fr/maison-de-sante/evreux/centre-de-vaccination-evreux?pid=practice-164744&enable_cookies_consent=1
2321,"Lieu de vaccination de DIEUE SUR MEUSE","6 Maison de santé, Rue du Rattentout ",55154,49.0723,5.42979,https://www.maiia.com/centre-de-vaccination/55320-dieue-sur-meuse/centre-de-vaccination---dieue-sur-meuse
175,"Centre Hospitalier de PAU","4 Boulevard Hauterive",64445,43.3242,-0.34984,https://partners.doctolib.fr/hopital-public/pau/ch-pau-vaccination?speciality_id=5494&enable_cookies_consent=1
526,"Chatillon-sur-Seine salle Luc Schreder (gymnase)","11 Rue Albert Camus",21154,47.8499,4.57623,
1395,"Centre de Vaccination - Ville de Saint-Valéry-Sur-Somme, Entrepôt des sel","2 Quai Lejoille",80721,50.1809,1.64405,https://partners.doctolib.fr/centre-de-sante/amiens/centre-de-vaccination-sapeurs-pompiers-de-la-somme?pid=practice-186856&enable_cookies_consent=1
657,"CDV31 Villefranche de Lauragais","69 Avenue de la Fontasse",31582,43.3997,1.71462,https://vaccination-covid.keldoc.com/cabinet-medical/villefranche-de-lauragais-31290/clinique-monie-villefranche-de-lauragais/clinique-monie-villefranche-de-lauragais?cabinet=16678&specialty=144
896,"ST-GREGOIRE - Brocéliande","3 Rue de Brocéliande",35278,48.1531,-1.68513,https://partners.doctolib.fr/centre-de-sante/saint-gregoire/centre-de-vaccination-de-saint-gregoire?pid=practice-164480&enable_cookies_consent=1
2347,"Centre de vaccination de Décines -Charpieu - Gymnase Charlie Chaplin","13 Rue Marcel Therras",69275,45.774,4.97366,https://partners.doctolib.fr/centre-de-sante/decines-charpieu/centre-de-vaccination-covid-19-decines-chartieu?pid=practice-181189&enable_cookies_consent=1
1112,"Palais des Victoires","2 Avenue Maurice Chevalier",06029,43.5518,6.96093,https://partners.doctolib.fr/centre-de-sante/cannes/centre-de-vaccination-covid-19-mairie-de-cannes?pid=practice-170734&enable_cookies_consent=1
1978,"Centre de vaccination éphémère de La Chapelle Vendômoise","1 Rue de Blois",41040,47.6716,1.24155,
1387,"Centre de vaccination Miribel Côtière - Théâtre Allégro"," Place de la République",01249,45.8269,4.95731,https://partners.doctolib.fr/centre-de-sante/miribel/centre-de-vaccination-miribel-cotiere?pid=practice-170943&enable_cookies_consent=1
1532,"EMV Mairie du 15e","31 Rue Péclet",75115,48.8413,2.3001,
1461,"CH des 4 Villes","42 Rue Dailly",92064,48.8447,2.2176,https://partners.doctolib.fr/hopital-public/saint-cloud/ch-4-villes-centre-de-vaccination-reserve-aux-personnels-de-l-etablissement?pid=practice-163521&enable_cookies_consent=1
2322,"Lieu de vaccination de VIGNEULLES (Maison de santé)","74 Rue Raymond Poincaré",55551,48.9789,5.71484,https://www.maiia.com/centre-de-vaccination/55210-vigneulles-les-hattonchatel/centre-de-vaccination---vigneulles-les-hattonchatel--
893,"PLEUMEUR-BODOU - Phoenix (ancien CDV de Lannion)"," Route du Radôme",22198,48.7815,-3.52693,https://vaccination-covid.keldoc.com/centre-municipal-de-sante/lannion-22300/centre-de-vaccination-de-lannion/centre-de-vaccination-de-lannion?cabinet=16700&specialty=144
1363,"CH EXCIDEUIL"," PLACE DU DR ACHILLE MOULINIER",24164,45.3368,1.0516,https://partners.doctolib.fr/hopital-public/excideuil/centre-de-vaccination-covid-centre-hospitalier-excideuil?pid=practice-165727&enable_cookies_consent=1
925,"QUIMPER - Salle des fêtes Dan Ar Braz"," Rue de Stang Bihan",29232,48.0095,-4.09997,https://vaccination-covid.keldoc.com/centre-municipal-de-sante/quimper-29000/quimper/quimper?cabinet=16721&specialty=144
2205,"Centre de vaccination du SDIS - Bassin de Bressuire","1 La Morinière",79179,46.7095,-0.597003,https://partners.doctolib.fr/centre-de-sante/vouille/centre-de-vaccination-covid-19-sdis-79?pid=practice-176955&enable_cookies_consent=1
2747,"Centre de vaccination Polygone Riviera (sans rdv)","12 Chemin de Saint-Jean",06027,43.6656,7.12703,
784,"CDV31 Bagnères de Luchon","Pavillon Normand Boulevard Edmond Rostand",31042,42.7884,0.596929,https://vaccination-covid.keldoc.com/centre-hospitalier/bagneres-de-luchon-31110/crf-hopitaux-luchon/crf-hopitaux-luchon?cabinet=16644&specialty=144
19,"Centre de vaccination de Saint-Lô : Salle Allende","2 Rue bis Saint-Thomas - salle salvador allende",50502,49.1138,-1.09151,https://partners.doctolib.fr/centre-de-sante/saint-lo/centre-de-vaccination-covid-19-ville-de-saint-lo?pid=practice-176124&enable_cookies_consent=1
1462,"CH de Beaujon","100 Boulevard du Général Leclerc",92024,48.9075,2.30849,
994,"Centre de vaccination du CH Sud Gironde - LANGON"," Avenue Elie Samson - Espace Nougaro",33227,44.5558,-0.245072,https://vaccination-covid.keldoc.com/centre-hospitalier/langon-33210/centre-hospitalier-sud-gironde/centre-hospitalier-sud-gironde?cabinet=16578&specialty=496
1183,"Centre de vaccination  - Fondation Hopale, Kursaal"," Avenue du Général de Gaulle",62108,50.4077,1.5665,https://vaccination-covid.keldoc.com/centre-hospitalier/berck-62600/fondation-hopale/fondation-hopale?cabinet=16886&specialty=144
564,"CDV31 Boulogne sur Gesse","1 Rue du Docteur Jean Montastruc",31080,43.2883,0.644903,https://vaccination-covid.keldoc.com/cabinet-medical/boulogne-sur-gesse-31350/boulogne-sur-gesse/boulogne-sur-gesse?cabinet=16662&specialty=144
339,"CDV31 Saint Jory"," Avenue Ségusino",31490,43.747,1.37604,https://vaccination-covid.keldoc.com/cabinet-medical/st-jory-31790/saint-jory/saint-jory?cabinet=16677&specialty=144
180,"Centre de vaccination au  CHU DE SAINT-ETIENNE - Hôpital Nord - Salle de Conférence - Hall AB","108 bis Avenue Albert Raimond",42275,45.4817,4.36293,https://partners.doctolib.fr/centre-depistage-covid/saint-priest-en-jarez/centre-de-vaccination-covid-19-chu-saint-etienne?pid=practice-168936&enable_cookies_consent=1
110,"Centre de vaccination Cherbourg-en-Cotentin : Salle Montecot (Octeville)"," Place des Justes - Octeville",50129,49.6242,-1.645,https://vaccination-covid.keldoc.com/centre-hospitalier/cherbourg-octeville-50100/chpc-centre-delocalise-salle-de-l-europe-tourlaville/chpc-centre-delocalise-salle-de-l-europe-tourlaville?cabinet=17298&specialty=496
2470,"Centre de vaccination Châlons En Champagne SDIS 51"," ",51108,48.9492,4.37248,https://partners.doctolib.fr/centre-de-sante/chalons-en-champagne/centre-de-vaccination-covid-19-gymnase-cabot-sdis-reserve-aux-professions-prioritaires?pid=practice-184496&enable_cookies_consent=1
2670,"Centre de vaccination - Commune de Montataire, Hôtel de ville"," Place Auguste Génie",60414,49.2563,2.43431,https://partners.doctolib.fr/vaccination-covid-19/montataire/centre-de-vaccination-covid-19-mairie-de-montataire?pid=practice-193664&enable_cookies_consent=1
2323,"Lieu de vaccination de Pierrefitte-sur-Aire","3 Rue de Condé (salle de la Mairie)",55404,48.8985,5.32949,https://www.maiia.com/centre-de-vaccination/55260-pierrefitte-sur-aire/centre-de-vaccination---pierrefitte-sur-aire
514,"MSP MAGNY EN VEXIN","6 Boulevard de la République",95355,49.156,1.79118,https://partners.doctolib.fr/maison-de-sante/magny-en-vexin/maison-de-sante-des-cordeliers-magny-en-vexin?speciality_id=5494&enable_cookies_consent=1
1533,"EMV Mairie Paris Centre","2 Rue Eugène Spuller",75103,48.864,2.36153,
1508,"GHU Paris - Site Pierre Bayle","6 Rue Pierre Bayle",75120,48.8587,2.39079,https://partners.doctolib.fr/hopital-public/paris/ghu-paris?pid=practice-163228&enable_cookies_consent=1
1394,"Centre de Vaccination - Ville de Flixecourt, Salle Le Chiffon Rouge"," Rue Philippe Ermenault",80318,50.0136,2.07553,https://vaccination-covid.keldoc.com/cabinet-medical/flixecourt-80420/flixecourt/flixecourt?cabinet=17050&specialty=144
1098,"Centre de vaccination - MSP Crécy en Ponthieu","42 Route de Rue",80222,50.2567,1.87346,https://vaccination-covid.keldoc.com/maison-de-sante/crecy-en-ponthieu-80150/msp-de-crecy-en-ponthieu/msp-de-crecy-en-ponthieu?cabinet=16938&specialty=496
194,"Centre de vaccination du Centre Hospitalier Universitaire DE CLERMONT-FERRAND, site Gabriel MONTPIED","58 Rue Montalembert",63113,45.7593,3.09131,https://partners.doctolib.fr/centre-depistage-covid/clermont-ferrand/chu-de-clermont-ferrand-centre-de-depistage-covid-19?speciality_id=5494&enable_cookies_consent=1
929,"LANDERNEAU - Gymnase Kergreis"," Route de Kéranéost",29103,48.4509,-4.28307,https://www.maiia.com/centre-de-vaccination/29800-landerneau/centre-de-vaccination---landerneau---lesneven
2231,"Centre de vaccination de Micropolis","44 Rue du Docteur Bernard Mouras",25056,47.2241,5.98189,https://partners.doctolib.fr/vaccination-covid-19/besancon/cbpps-ville-besancon?pid=practice-187216&enable_cookies_consent=1
2753,"Centre de vaccination mobile Mutualité","1 Allee de la Solidarite",40192,43.8977,-0.501117,
1705,"Centre vaccinal de l'Eyrieux site secondaire Saint-Martin de Valamas"," Rue du Pont  (adresse livraison : 1 rue Fernand Lafont - 07160 Le Cheylard)",07064,44.9121,4.43581,https://www.maiia.com/centre-de-vaccination/07160-le-cheylard-/centre-de-vaccination-le-cheylard
1619,"Ne plus utiliser - EHPAD de La Madeleine","40 Rue du Maréchal Joffre",24037,44.8473,0.478498,
218,"Centre de vaccination - Hôpital de la Croix Rousse- HCL","103  Grande rue de la Croix-Rousse",69384,45.7823,4.83035,https://partners.doctolib.fr/hopital-public/lyon/hopital-de-la-croix-rousse-hcl-vaccination-covid?pid=practice-163793&enable_cookies_consent=1
1534,"EMV Mairie du 5ème - Centre COVISAN 5","19 b Place du Panthéon",75105,48.8461,2.34488,
2678,"CV éphémère Coullons","13 Rue de la poste",45108,47.6196,2.49234,
895,"Centre de vaccination du Carmausin - Salle François Mitterand","1 Boulevard Henri Barbusse",81060,44.0503,2.15082,https://partners.doctolib.fr/centre-de-sante/carmaux/centre-de-vaccination-covid-19-du-carmausin?pid=practice-165296?speciality_id=5494&enable_cookies_consent=1
1186,"Centre de vaccination de l'Albigeois - Parc des Expositions","1 Rue de la Baute",81284,43.9175,2.11465,https://partners.doctolib.fr/hopital-public/tarn/chic-castres-mazamet-centre-de-vaccination?pid=practice-164315&enable_cookies_consent=1
2750,"Centre de vaccination éphémère Cambuston Saint-André","919 rue de Cambuston",97409,-20.933,55.6521,https://vaccination-covid.keldoc.com/cabinet-medical/saint-andre-97440/centre-de-vaccination-ephemere-cambuston-saint-andre/centre-de-vaccination-ephemere-cambuston-saint-andre?cabinet=26136&specialty=496
2754,"Maison de santé pluridisciplinaire de Vergt","2 rue de La Paix",24571,45.0263,0.718872,https://partners.doctolib.fr/vaccination-covid-19/vergt/centre-de-vaccination-covid-19-vergt?pid=practice-200200&enable_cookies_consent=1
1740,"CPTS DU CABARDES","1 Allee des Platanes",11115,43.3695,2.28568,https://partners.doctolib.fr/centre-de-vaccinations-internationales/conques-sur-orbiel/centre-de-vaccination-covid-19-cpts-du-carbardes?pid=practice-173587&enable_cookies_consent=1
2325,"Lieu de vaccination d'ANCERVILLE","20 Rue de Fremy (MJC)",55010,48.6356,5.02231,https://www.maiia.com/centre-de-vaccination/55170-ancerville/centre-de-vaccination-ancerville
808,"Centre de vaccination de St Satur - Centre socio-culturel Guy Poubeau","22 Rue du Pré de Chappes",18233,47.3375,2.85577,https://partners.doctolib.fr/maison-de-sante/saint-amand-montrond/cpts-sud-du-cher-et-berry-val-de-loire-vaccination?speciality_id=5494&enable_cookies_consent=1
2752,"Centre de vaccination éphémère Cressonnière Saint-André","300 Rue Bois de Rose, La Cressonnière",97409,-20.9772,55.6558,https://vaccination-covid.keldoc.com/cabinet-medical/saint-andre-97440/centre-de-vaccination-ephemere-cressonniere-saint-andre/centre-de-vaccination-ephemere-cressonniere-saint-andre?cabinet=26138&specialty=496
1495,"Arnay-le-Duc salle Saint Laurent","11 Rue Jean Moulin",21023,47.1304,4.4828,https://partners.doctolib.fr/vaccination-covid-19/arnay-le-duc/centre-de-vaccination-covid-19-d-arnay-le-duc?pid=practice-175098&enable_cookies_consent=1
1497,"ARS Mayotte","4006 Kaweni",97611,-12.765,45.2266,
2594,"Centre de vaccination Guillestrois - Opération Tous sur le Pont"," Salle du Queyron - Place d'Italie",05065,44.6628,6.65557,https://partners.doctolib.fr/centre-de-sante/gap/centre-mobile-de-vaccination-sdis05?pid=practice-184270&enable_cookies_consent=1
226,"Centre de vaccination -Hôpital Lyon sud - HCL","165 Chemin du Grand Revoyet",69152,45.7021,4.80642,https://partners.doctolib.fr/hopital-public/lyon/hopital-lyon-sud-hcl-vaccination-covid?pid=practice-163795&enable_cookies_consent=1
403,"Centre de vaccination Argelès sur Mer","20 ter Avenue Moliere",66008,42.5516,3.02923,https://partners.doctolib.fr/centre-de-sante/argeles-sur-mer/centres-de-vaccination-covid-19-argeles-sur-mer?speciality_id=5494&enable_cookies_consent=1
860,"Centre de vaccination GHSIF MELUN - Site de Brie Comte Robert","17 Rue Petit de Beauverger",77053,48.694,2.60671,https://partners.doctolib.fr/centre-de-vaccinations-internationales/brie-comte-robert/centre-de-vaccination-de-la-brie?speciality_id=5494&enable_cookies_consent=1
2679,"CV éphémère Chatillon-Coligny","Gymnase Chemin des jardins",45085,47.8243,2.84543,
2758,"PROXI-VACCIN Saint Girons","1 avenue Aulot - parking et salle de la MSP de Saint Girons",11033,43.2189,1.7323,https://partners.doctolib.fr/vaccination-covid-19/foix/centre-de-vaccination-covid-19-ariege-operation-exceptionnelle?pid=practice-200109?pid=practice-200109&enable_cookies_consent=1
1536,"EMV Maire du 6ème","76  Rue Bonaparte",75106,48.8507,2.33263,
1535,"EMV CV7e - Gymnase Camou","4 Rue Amélie",75107,48.8594,2.30736,
105,"Centre de vaccination de Verdun (Salle Cassin) (Equipe mixte CH/médecine de ville)"," Allee du Pre l'Eveque",55545,49.1544,5.3799,https://partners.doctolib.fr/hopital-public/verdun/centre-de-vaccination-covid-19-ch-verdun?speciality_id=5494&enable_cookies_consent=1
1537,"EMV Mairie 8ème arrondissement","3 Rue de Lisbonne",75108,48.8778,2.31735,
67,"Covax Ambu - bâtiment ancien service rhumatologie du CH de Perpignan","20  Avenue du Languedoc",66136,42.7257,2.88759,https://partners.doctolib.fr/centre-de-sante/perpignan/centres-de-vaccination-covid-19-de-perpignan?speciality_id=5494&enable_cookies_consent=1
1262,"Pôle économique et culturel CAZAUBON"," Place Alban Dulhoste",32096,43.9349,-0.0734682,RIEN
364,"MSP Les Angles"," Route de la Foret",66004,42.5856,2.08671,https://partners.doctolib.fr/maison-de-sante/les-angles/maison-de-sante-capcir-haut-conflent?speciality_id=5494&enable_cookies_consent=1
2486,"Centre de vaccination d'Ustaritz Lapurdi"," Centre Lapurdi place du Labourd",64547,43.3959,-1.45461,https://partners.doctolib.fr/centre-de-sante/ustaritz/centre-de-vaccination-covid-19-ccas-ustaritz?pid=practice-184654&enable_cookies_consent=1
2759,"PROXI-VACCIN Le Mas d'Azil","357 Rue du Mouret",09181,43.0795,1.36111,https://partners.doctolib.fr/vaccination-covid-19/foix/centre-de-vaccination-covid-19-ariege-operation-exceptionnelle?pid=practice-200113?pid=practice-200113&enable_cookies_consent=1
1219,"Centre de Vaccination Créteil","5 bis Place Salvador Allende",94028,48.7782,2.45444,https://partners.doctolib.fr/centre-de-sante/creteil/centre-de-vaccination-covid-ville-de-creteil?speciality_id=5494&enable_cookies_consent=1
1621,"EMV SDIS","18 Rue Ampère",91377,48.7308,2.27139,
230,"Centre de vaccination de l'Hôpital Nord-Ouest-Villefranche - Hôpital de Gleizé"," Route d'EPINAY- Parking P2",69092,46.005,4.69514,https://partners.doctolib.fr/hopital-public/villefranche-sur-saone/centre-de-vaccination-covid-villefranche-hopital-nord-ouest?speciality_id=5494&enable_cookies_consent=1
2044,"Sellommes Centre éphémère"," ",41243,47.756,1.1931,
2755,"Ile de loisirs de Draveil","5 Boulevard du Général de Gaulle",91201,48.6896,2.39294,
2757,"EMV Barnum Bondy","37 Avenue du 14 Juillet",93010,48.9121,2.49116,
644,"Centre de vaccination GIVRY -  Maison médicale","13 Rue de la Gare",71221,46.7792,4.74829,https://partners.doctolib.fr/centre-de-sante/givry/centre-de-vaccination-de-givry?speciality_id=5494&enable_cookies_consent=1
1562,"Centre de vaccination Ephémère de Baugy"," ",18023,47.0814,2.72829,https://partners.doctolib.fr/centre-de-sante/avord/centre-vaccination-avord-baugy?pid=practice-169562&enable_cookies_consent=1
2327,"Centre de vaccination éphémère du Val d'Ay","160 Rue de Peyrard",07309,45.1555,4.6247,
2230,"Grand centre 58","1 Place de l’Hotel de Ville",58194,46.9875,3.15817,
2672,"Centre de vaccination de Marguerittes","32 Avenue Magellan",30156,43.8677,4.44416,https://partners.doctolib.fr/centre-de-sante/marguerittes/centre-de-vaccination-covid-19-ville-de-marguerittes?pid=practice-190429&enable_cookies_consent=1
1538,"EMV Mairie du 9ème arrondissement","6 Rue Drouot",75109,48.8726,2.34044,
2675,"Centre de Vaccination - Mairie annexe de la Pointe de Contes","2 Chemin du Tram",06048,43.782,7.33733,https://partners.doctolib.fr/vaccination-covid-19/contes/centre-de-vaccination-de-contes?pid=practice-165045&enable_cookies_consent=1
2756,"BASE DE LOISIRS ETAMPES","5 avenue Charles de Gaulle",91223,48.4285,2.16325,
2760,"centre de vaccination de Bram ","4 Place du Foirail",11049,43.2438,2.11089,
2763,"Centre le Cadran"," Boulevard de Normandie (palais des congrés)",27229,49.0221,1.13755,
1540,"EMV Salle Olympe de Gouges","13 Rue Merlin",75111,48.8603,2.38548,
2645,"Centre de vaccination de Châtellerault","20 Route de Nonnes",86066,46.7968,0.535383,https://partners.doctolib.fr/vaccination-covid-19/chatellerault/centre-de-vaccination-covid-19-salle-omnisport-de-la-ville-de-chatellerault?pid=practice-181900&enable_cookies_consent=1
1622,"Centre de vaccination de Thionville - Théâtre municipal","30 Boulevard Foch",57672,49.3607,6.16429,https://partners.doctolib.fr/centre-de-sante/thionville/centre-de-vaccination-covid-19-thionville?pid=practice-172629&enable_cookies_consent=1
1541,"EMV Centre de santé Bauchat-Nation","22 Rue du Sergent Bauchat",75112,48.8453,2.39271,
1542,"EMV Centre de vaccination Bertheau","15 Rue Charles Bertheau",75113,48.8228,2.36355,
1755,"antenne MSP Ambierle ","15 Cr Saint Charles",42003,46.1042,3.89567,https://partners.doctolib.fr/centre-de-vaccinations-internationales/ambierle/centre-de-vaccination-covid-19-msp-d-ambierle?pid=practice-175394&enable_cookies_consent=1
238,"CH Mas Careiron","16 bis Chemin du Paradis",30334,44.0083,4.41307,https://partners.doctolib.fr/hopital-public/uzes/centre-de-vaccination-covid-ch-le-mas-careiron?pid=practice-164184&enable_cookies_consent=1
228,"Centre de vaccination du CHUM"," La Meynard",97209,14.6331,-61.0386,https://vaccination-covid.keldoc.com/centre-hospitalier-universitaire/fort-de-france-cedex-97261/centre-hospitalier-universitaire-martinique/centre-hospitalier-universitaire-martinique?cabinet=16639&specialty=144
2681,"Centre de vaccination de Heillecourt","11 Rue Gustave Lemaire",54257,48.6524,6.19354,https://partners.doctolib.fr/vaccination-covid-19/villers-les-nancy/centre-de-vaccination-covid-19-espace-communal-foch?pid=practice-193871&enable_cookies_consent=1
761,"Complexe Martin Luther King"," rue du Dr Francis Baud",74012,46.1985,6.23831,https://partners.doctolib.fr/centre-de-sante/annemasse/centre-de-vaccination-covid-annemasse-complexe-martin-luther-king?speciality_id=5494&enable_cookies_consent=1
688,"Centre de vaccination - Palais des sports de Gerland /Hospices Civils de Lyon","350 Avenue Jean Jaurès",69387,45.724,4.83026,https://partners.doctolib.fr/hopital-public/lyon/palais-des-sports-gerland-hcl-vaccination-covid?pid=practice-163661&enable_cookies_consent=1
1543,"EMV Gymnase Bourneville Kellermann du 13ème arrondissement","171 Boulevard de l’Hôpital",75113,48.8324,2.35601,
1625,"Centre de vaccination de Bitche - Hôpital Saint Joseph","1 Rue de Lebach",57089,49.0468,7.42257,https://partners.doctolib.fr/hopital-public/sarreguemines/centre-de-vaccination-covid-19-du-ch-de-sarreguemines?pid=practice-173166&enable_cookies_consent=1
482,"CH de Cayenne - délocalisé à l'ENCRE"," Avenue des Flamboyants",97302,4.92453,-52.3207,https://www.maiia.com/centre-de-vaccination/97306-cayenne/centre-de-vaccination---centre-hospitalier-de-cayenne
2682,"Centre de Vaccination Pompey Hartmann","59 Avenue du Général de Gaulle",54430,48.7705,6.1291,https://partners.doctolib.fr/vaccination-covid-19/pont-a-mousson/centre-de-vaccination-covid-19-pompey-hartmann?pid=practice-188445&enable_cookies_consent=1
1544,"EMV Mairie du 14ème - Centre COVISAN 13-14","6 Rue Pierre Castagnou",75114,48.833,2.32634,
1626,"Centre de vaccination de Dieuze","21 Route de Loudrefing",57177,48.8157,6.73162,https://partners.doctolib.fr/hopital-public/chateau-salins/centre-de-vaccination-covid-19-hopital-de-chateau-salins?pid=practice-172748&enable_cookies_consent=1
2684,"APST Equipe mobile","1 Rue Michel Begon",41018,47.592,1.322,
369,"CH Albi","22 Boulevard Général Sibille",81004,43.926,2.14272,https://partners.doctolib.fr/hopital-public/castres/chic-castres-mazamet-centre-de-vaccination?speciality_id=5494&pid=practice-164139&enable_cookies_consent=1
1545,"EMV Centre médical de l'Institut Pasteur ","211 Rue de Vaugirard",75115,48.8419,2.30962,https://partners.doctolib.fr/centre-de-sante/paris/centre-medical-institut-pasteur-cmip-vaccination-covid-19?pid=practice-164810&enable_cookies_consent=1
1546,"EMV Centre gérontologique Henry Dunant","95 b Rue Michel-Ange",75116,48.8402,2.25831,
1676,"EMV - Centres Ephémères QPV","94 Quai de la Rapée",75112,48.8456,2.36818,
2685,"CH BLOIS - CV département - équipe mobile","16 Mail Pierre Charlot",41018,47.6001,1.3397,https://partners.doctolib.fr/vaccination-covid-19/blois/ch-blois-centre-de-vaccination-covid-19?pid=practice-163727&enable_cookies_consent=1
1645,"Centre de vaccination ""grand public"" villages vovéens","4 Rue Saint-Lubin",28422,48.2671,1.63062,
1444,"Centre de vaccination de Saint-Amour","15 Rue Sainte - Marie",39475,46.4361,5.3439,https://partners.doctolib.fr/centre-de-sante/dole/ars-de-bourgogne-franche-comte?pid=practice-171876&enable_cookies_consent=1
2686,"CV du CIHL","35 Place du Châtelet",45234,47.903,1.90926,
1441,"Centre de Vaccination Arinthod","8 Rue des Ecoles",39016,46.3935,5.56468,https://partners.doctolib.fr/centre-de-sante/dole/ars-de-bourgogne-franche-comte?pid=practice-171720&enable_cookies_consent=1
1548,"EMV Mairie du 18e - Centre COVISAN 18","24 Rue Hermel",75118,48.892,2.34488,
2236,"Grand centre 89","1 Place de l’Hotel de Ville",89024,47.796,3.57037,
1677,"Equipe mobile du département de la Haute-Savoie","1 Av d’Albigny",74010,45.9026,6.13204,
1549,"EMV Centre de santé Edmond de Rothschild","3 Passage Dubois",75119,48.8846,2.38281,
1292,"MSP Signy-le-Petit","1 Rue Nicolas de Rumigny",08420,49.9029,4.27997,https://partners.doctolib.fr/centre-de-sante/sedan/centre-de-vaccination-covid-ars-ardennes?pid=practice-167411&enable_cookies_consent=1
597,"centre de vaccination du CH d'Avallon","1 Rue de Hopital",89025,47.4904,3.90475,https://partners.doctolib.fr/hopital-public/avallon/centre-de-vaccination-covid-19-de-l-avallonais?speciality_id=5494&enable_cookies_consent=1
1449,CHSF,"10 Avenue du Général de Gaulle",91174,48.621,2.4571,https://partners.doctolib.fr/hopital-public/corbeil-essonnes/ch-sud-francilien-vaccination-covid-reserve-aux-professionnels-de-l-etablissement?pid=practice-162486&enable_cookies_consent=1
2517,"centre de vaccination de Grand charmont","31 Avenue des Acacias",25284,47.5339,6.82761,
1679,"Equipe Mobile Précarité 78","1 Rue du Fort",78401,49.0031,1.91088,https://partners.doctolib.fr/centre-depistage-covid/meulan-en-yvelines/ght-yvelines-nord-chi-meulan-les-mureaux-chimm?pid=practice-178709?speciality_id=5494&enable_cookies_consent=1
2688,"Centre de Vaccination - CENON","88 Cours Victor Hugo",33119,44.8521,-0.532148,
1550,"EMV Le 104","5 Rue Curial",75119,48.89,2.3715,https://partners.doctolib.fr/vaccination-covid-19/paris/centre-de-vaccination-de-la-ville-de-paris-le-104?pid=practice-164926&enable_cookies_consent=1
1057,"CHU POITIERS - Site de MONTMORILLON","2 Rue Henri Dunant",86165,46.4286,0.866061,https://partners.doctolib.fr/hopital-public/montmorillon/centre-de-vaccination-chu-poitiers-site-de-montmorillon?speciality_id=5494&enable_cookies_consent=1
610,"CD Lamartine","3 bis Rue Lamartine",58194,47.0057,3.15605,https://partners.doctolib.fr/centre-de-sante/nevers/centre-departemental-de-vaccination-de-la-nievre?speciality_id=5494&enable_cookies_consent=1
1605,"GENLIS - Mairie","18 Avenue du General de Gaulle",21292,47.2398,5.22259,https://partners.doctolib.fr/maison-de-sante/seurre/centre-de-vaccination-pole-de-sante-rives-de-saone?pid=practice-174447&enable_cookies_consent=1
1460,"CH de Versailles  Site André Mignot","177 Rue de Versailles",78158,48.8311,2.12813,https://partners.doctolib.fr/centre-depistage-covid/ile-de-france/ars-ile-de-france-vaccination-des-professionnels-de-sante?pid=practice-162774&enable_cookies_consent=1
1736,"FTM Tarterets","5 Avenue Léon Blum",91174,48.6173,2.4666,
1472,"GHEF-Site de Jossigny","4 Cours de la Gondoire",77237,48.8506,2.76969,https://partners.doctolib.fr/hopital-public/meaux/ghef-centre-de-vaccination-covid-reserve-aux-professionnels-de-sante-de-ville?pid=practice-162172&enable_cookies_consent=1
1471,"GHEF-site CH Coulommiers","4 Rue Gabriel Péri",77131,48.8273,3.09569,https://partners.doctolib.fr/hopital-public/meaux/ghef-centre-de-vaccination-covid-reserve-aux-professionnels-de-sante-de-ville?pid=practice-162149&enable_cookies_consent=1
1741,"Centre de vaccination de Trebes","1 Avenue Pierre Curie",11397,43.2096,2.4448,https://partners.doctolib.fr/cabinet-medical/trebes/centre-de-vaccination-de-trebes?pid=practice-173016&enable_cookies_consent=1
2692,"Equipe mobile - Centre de santé VAL CONSULT","7 Rue Mongenot",94067,48.8434,2.41655,
2694,"Opération Cité Universitaire","9 D Boulevard Jourdan",75114,48.8173,2.33774,https://partners.doctolib.fr/vaccination-covid-19/paris/centre-de-vaccination-ephemere-cite-universitaire-paris-14?pid=practice-195652&enable_cookies_consent=1
2691,FOIX-ESTIVE,"23 Avenue de l’Ariège",09122,42.9602,1.61111,https://partners.doctolib.fr/centre-de-sante/foix/centre-de-vaccination-covid-1-foix-estive?pid=practice-195285&enable_cookies_consent=1
1752,"Centre de vaccination de Rémilly"," Route de Bechy",57572,49.008,6.39542,https://partners.doctolib.fr/centre-de-sante/remilly/centre-de-vaccination-covid-19-remilly-moselle-57?pid=practice-173661&enable_cookies_consent=1
1488,"Centre Hygée au CHU de Saint-Etienne","116 Avenue Albert Raimond",42275,45.4798,4.36101,https://partners.doctolib.fr/hopital-public/saint-priest-en-jarez/chste?pid=practice-169578&enable_cookies_consent=1
1747,"EMV Domicile Opalia","10 Avenue Charles Péguy",95585,48.9813,2.37473,
1554,"EMV - Opérations QPV - DASES","94 Quai de la Rapée",75112,48.8455,2.36833,
1746,"EMV Domicile COORDINOV","12 Chaussée Jules César",95476,49.0508,2.0713,
2667,"Centre de vaccination éphémère de Baie Mahault","156 Rue du dispensaire à coté du centre culturel Joseph Lockel",97103,16.2601,-61.5888,https://partners.doctolib.fr/vaccination-covid-19/baie-mahault/centre-de-vaccination-covid-19-dispensaire-de-baie-mahault?pid=practice-167637&enable_cookies_consent=1
1555,"Centre de vaccination de Freyming Merlebach - Salle Vouters"," Rue de la frontière",57240,49.1499,6.80504,https://partners.doctolib.fr/centre-de-vaccinations-internationales/freyming-merlebach/centre-de-vaccination-covid-19-vouters?pid=practice-172597&enable_cookies_consent=1
1556,"EMV Lagny","33 Rue Emmanuel Grévin",77243,48.8669,2.71248,
1749,"EMV Domicile Joséphine","55 Avenue de Paris",95598,48.9887,2.29268,
1660,"EMV Romainville","91 Rue Saint - Germain",93063,48.8804,2.43039,
2657,"EMV La Croix Rouge","6 Rue Paul Langevin",93071,48.9472,2.53082,
2695,"Vacci-Drive Gare Fleury-les-Aubrais","9 rue Louis Labonne",45147,47.9315,1.92076,
1753,vaccinobus," ",21355,47.2851,5.06124,
1730,"CPAM Grigny","9 Rue Gabriel Péri",91286,48.6569,2.38657,
2413,"Centre de vaccination de Montbronn - Salle des fêtes"," Rue Notre-Dame",57477,48.9927,7.30576,https://partners.doctolib.fr/centre-de-sante/montbronn/centre-de-vaccination-covid19-montbronn?pid=practice-180287&enable_cookies_consent=1
384,"Centre de vaccination du CH William Morey","4 Rue Capitaine Drillien",71076,46.777,4.84079,https://partners.doctolib.fr/hopital-public/chalon-sur-saône/ch-chalon-sur-saone-centre-de-vaccination-covid-19?speciality_id=5494&enable_cookies_consent=1
1750,"EMV Domicile Vexin Pean"," Rue Roger Tagliana",95039,49.0679,2.15534,
726,"Centre de vaccination de l'Hôpital de Beaujeu"," Rue du Docteur Giraud",69018,46.1531,4.58885,https://partners.doctolib.fr/hopital-public/belleville-en-beaujolais/centre-de-vaccination-covid-belleville?speciality_id=5494&enable_cookies_consent=1
2524,"Centre de Vaccination Croix-Rouge","1 Place Victor Schoelcher",97302,4.93756,-52.3349,
1757,"antenne MSP St Bonnet le Courreau ","20 Route de Fraisse",42205,45.6595,3.94395,
2698,"Opération Vaccivélo République","18 Place de la République",75110,48.8679,2.36326,
1558,"EMV CV territorial du Haut Val d'Oise","9 Rue Chantepie Mancier",95313,49.1142,2.22334,
1751,"Centre de vaccination COVID 19 : Site de Grand Ilet","10 Rue du Père Eugene Jouanno",97421,-21.0307,55.4773,https://vaccination-covid.keldoc.com/cabinet-medical/grand-ilet-97433/centre-de-vaccination-ephemere-station-de-trail-grand-ilet/centre-de-vaccination-ephemere-station-de-trail-grand-ilet?cabinet=52680&specialty=496
1557,"Centre de Vaccination éphémère EMV Conseil Départemental 77","10 Place de la Prefecture",77288,48.5415,2.6552,
2696,"Opération Parvis Hôtel de Ville","7 Place de l’Hotel de Ville - Esplanade de la Libération",75104,48.8569,2.35133,https://partners.doctolib.fr/centre-de-sante/paris/centre-de-vaccination-covid-parvis-de-l-hotel-de-ville-paris?pid=practice-196575&enable_cookies_consent=1
1217,"Site de Bois-Guillaume","1530 Rue de la Haie",76108,49.4684,1.11628,https://partners.doctolib.fr/hopital-public/rouen/chu-de-rouen-centre-de-vaccination?pid=practice-162659&enable_cookies_consent=1
1775,"CP - US SAINT QUENTIN FALLAVIER / Etablissement spécialisé pour mineurs du Rhône"," Rue du Rambion",69282,45.7605,4.99769,
1607,"Centre de vaccination Salle Jean Ferrat"," Place Eugene Laporte",89257,47.9625,3.51408,https://partners.doctolib.fr/centre-de-vaccinations-internationales/montholon/centre-de-vaccination-covid-19-migennes?pid=practice-173125&enable_cookies_consent=1
2699,"VELARS SUR OUCHE -Salle Polyvalente "," Place Osburg",21661,47.319,4.90989,
775,"Centre de vaccination de Sarreguemines - CHS (salle des fêtes du CHS)","1 Rue Calmette",57631,49.0995,7.08284,https://partners.doctolib.fr/hopital-public/sarreguemines/ch-de-sarreguemines?speciality_id=5494&enable_cookies_consent=1
1784,"MA - US / Maison d'Arrêt de Lons-le-Saunier"," Pl de la Chevalerie",39300,46.6736,5.55799,
1559,"EMV CV territorial Centre Val d'Oise","85 Rue du Général de Gaulle",95210,48.9687,2.3048,
1513,"Centre de vaccination de Metz - HIA LEGOUEST - 2"," Rue des Frères Lacretelle",57463,49.1133,6.18639,https://partners.doctolib.fr/centre-de-vaccinations-internationales/metz/centre-de-vaccination-n-2-hia-legouest?pid=practice-172148&enable_cookies_consent=1
1514,"Centre de vaccination de Metz - UNEOS - Site Belle Isle","2 Rue Belle-Isle",57463,49.1233,6.17144,https://partners.doctolib.fr/centre-de-sante/metz/centre-vaccination-covid19-hbi-uneos?pid=practice-165011&enable_cookies_consent=1
122,"CH Gisors"," Route de Rouen",27284,49.2796,1.76574,
1663,EMV-Montreuil,"1 Place Jean Jaures",93048,48.8621,2.44139,https://partners.doctolib.fr/centre-de-sante/montreuil/centre-de-vaccination-de-la-ville-de-montreuil?pid=practice-175106&enable_cookies_consent=1
1560,"Centre de Vaccination éphémère Torcy","5 Place de l’Appel du 18 Juin 1940",77468,48.8497,2.65243,https://partners.doctolib.fr/centre-de-sante/torcy/point-de-vaccination-avance-de-torcy?pid=practice-173895&enable_cookies_consent=1
2700,"CV/EMV - Bobigny","31 Av du President Salvador Allende",93008,48.9062,2.44454,
1646,"Toury Salle polyvalente éphémère ""grand public"""," ",28391,48.1961,1.93684,
1521,"Centre de vaccination de Suippes - Maison des association Centre culturel Jean Huguin","9 Rue Saint-Cloud",51559,49.1324,4.53236,https://partners.doctolib.fr/centre-de-sante/suippes/centre-de-vaccination-de-suippes?pid=practice-176121&enable_cookies_consent=1
480,"Centre de vaccination de Pontarlier - Espace POURNY","2 Place René Pourny",25462,46.905,6.33883,https://partners.doctolib.fr/centre-de-sante/pontarlier/reserve-au-personnel-soignant-centre-de-vaccination-covid-de-pontarlier?pid=practice-181203&enable_cookies_consent=1
1863,"MA - Maison d'arrêt Laval / Maison d'Arrêt de Laval","20 Boulevard Frédéric Chaplet",53130,48.0662,-0.783254,
948,"Centre de vaccination de Sermaize les Bains, Maison médicale"," Lotissement de la Saulx",51531,48.7873,4.92017,https://partners.doctolib.fr/centre-de-sante/mermeze/centre-de-vaccination-covid-19-de-mermeze?speciality_id=5494&enable_cookies_consent=1
1563,"EMV CV Victor Dupouy","69 Rue du Lieutenant Colonel Prudhon",95018,48.9447,2.24012,
1668,"CH du Gier Antenne rive de gier","19 Rue Léon Marrel",42186,45.5274,4.61922,https://www.maiia.com/?gclid=EAIaIQobChMI-4brxbmU7wIVQbDtCh1VOgFzEAAYASAAEgLEUfD_BwE
165,"Centre de vaccination de Bar-le-Duc (Salle Dumas jusqu'au 9/04/21 puis gymnase Beugnot à compter du lundi 12 avril) ","1 Place Sainte Catherine",55029,48.7795,5.16697,https://partners.doctolib.fr/centre-de-sante/bar-le-duc/centre-de-vaccination-covid-19-ch-bar-le-duc?pid=practice-181352&enable_cookies_consent=1
2658,"Pharmacie Centrale","19 Rue Monge",08105,49.7606,4.71831,
2704,"Equipe mobile vaccination du Tour de France"," boulevard Tanguy Prigent",29019,48.3886,-4.53141,
2701,"Centre de vaccination : Site de Saint Joseph","53 Rue Charles Baudelaire",97412,-21.3797,55.652,https://vaccination-covid.keldoc.com/cabinet-medical/saint-joseph-97480/centre-multi-services-de-saint-joseph/centre-multi-services-de-saint-joseph?cabinet=26046&specialty=496
2464,"Collège jean Moulin","122 Avenue Jacques Simon",51506,48.9542,4.37896,https://partners.doctolib.fr/centre-de-sante/saint-memmie/centres-de-vaccination-covid-19-grand-reims?pid=practice-184017&enable_cookies_consent=1
2480,"Centre de vaccination COVID Ad Hoc de Chindrieux","903 Rte d’Aix",73085,45.8135,5.85003,https://partners.doctolib.fr/centre-de-sante/chindrieux/centre-de-vaccination-covid-chindrieux?pid=practice-179442&enable_cookies_consent=1
2328,"Vaccinobus du Vaucluse","135 Maison de la région du Vaucluse  - Avenue Pierre Sémard",84007,43.9348,4.8306,
2497,"Centre de vaccination COVID Ad Hoc - Le Bourget du Lac","Salle la Cistude Route de Chambéry",73051,45.6468,5.86265,https://partners.doctolib.fr/centre-de-sante/le-bourget-du-lac/centre-de-vaccination-covid-19-mairie-aix-les-bains-le-bourget-du-lac?pid=practice-186113&enable_cookies_consent=1
620,"Centre de vaccination de PARAY LE MONIAL - Salle du Centre associatif Parodien","9 Rue Pierre Lathuilière",71342,46.4508,4.11297,https://partners.doctolib.fr/centre-de-sante/paray-le-monial/centre-de-vaccination-de-paray-le-monial?speciality_id=5494&enable_cookies_consent=1
2708,"Evry Montesquieu/Brassens","3 Avenue de la Liberté",91228,48.6379,2.43547,
1799,"MA - MAISON D'ARRET DE BOURGES / Maison d'Arrêt de Bourges","1 Route Mediane",18033,47.0951,2.39973,
2706,"Centre de vaccination du Centre d'examens de santé - Vesoul","9 Boulevard des Alliés",70550,47.6169,6.15631,
1833,"CP - US Centre Pénitentiaire d'Annoeullin / Centre Pénitentiaire de Lille-Loos-Sequedin"," Place de la Paix",59566,50.6205,2.98381,
1834,"MA - US Maison d'arrêt de DUNKERQUE / Maison d'Arrêt de Dunkerque","62 Rue Henri Terquem",59183,51.0399,2.38074,
2493,"Centre de vaccination d'Ingrandes","5 Rue des écoles, Salle polyvalente",86111,46.8762,0.569044,
1739,"Centre de vaccination COVID 19 : site de Hell-Bourg","23 Rue Général de Gaulle",97421,-21.0649,55.5214,https://vaccination-covid.keldoc.com/cabinet-medical/hell-bourg-97433/centre-de-vaccination-ephemere-mairie-annexe-d-hell-bourg/centre-de-vaccination-ephemere-mairie-annexe-d-hell-bourg?cabinet=52676&specialty=496
495,"Centre de vaccination CHU-Nord "," Allée des Topazes",97411,-20.8915,55.4439,https://vaccination-covid.keldoc.com/centre-hospitalier-universitaire/saint-denis-97400/centre-hospitalier-universitaire-la-reunion-site-felix-guyon/centre-hospitalier-universitaire-la-reunion-site-felix-guyon?cabinet=51299&specialty=144
2707,"SDIS 976","Centre KINGA Route Nationale 1 - Kaweni ",97611,-12.7648,45.2266,
1850,"CP - Unité Sanitaire (USS + DSP) du Centre Pénitentiaire Sud Francilien / Centre de Détention de Melun","10 Quai de la Courtille",77288,48.5355,2.66195,
1842,"CD - US BAPAUME / Maison d'Arrêt d'Arras","12 Rue des Carabiniers d?Artois",62041,50.293,2.76048,
1864,"MA - US le mans / Maison d'arret du Mans - Les Croisettes"," Rue Cesare Beccaria",72095,48.0439,0.218664,
2562,"Equipe mobile salle communale"," Place de la mairie",26215,44.4863,5.38062,
1228,"Centre de vaccination de Schiltigheim "," Avenue de la Deuxième Division Blindée",67447,48.6102,7.72863,https://vaccination-covid.keldoc.com/cabinet-medical/schiltigheim-67300/briqueterie/briqueterie?cabinet=16749&specialty=144
1527,"Centre de vaccination des Combrailles - Maison de santé de Giat","14 Place de Baschurch",63165,45.8005,2.46853,https://partners.doctolib.fr/centre-de-sante/pontgibaud/centre-de-vaccination-covid-des-combrailles-pontgibaud?pid=practice-173036&enable_cookies_consent=1
2457,"CANCALE - Salle Cancaven"," Rue d'arstein",35049,48.6774,-1.86378,https://partners.doctolib.fr/centre-de-vaccinations-internationales/cancale/centre-de-vaccination-covid-19-ville-de-cancale?pid=practice-184743&enable_cookies_consent=1
1523,"Centre Equinoxe La Tour du Pin","9 Rue Louis Pasteur",38509,45.5615,5.44985,https://partners.doctolib.fr/centre-de-vaccinations-internationales/la-tour-du-pin/centre-de-vaccination-de-la-tour-du-pin?pid=practice-173204&enable_cookies_consent=1
2001,"COMBOURG - Espace Malouas"," Rue de Malouas",35085,48.4121,-1.75013,https://partners.doctolib.fr/centre-de-sante/combourg/centre-de-vaccination-covid-19-de-la-cpts-de-bretagne-romantique?pid=practice-176632&enable_cookies_consent=1
937,"Centre de vaccination de Mirecourt","1115 Avenue René Porterat",88304,48.2965,6.11147,https://partners.doctolib.fr/vaccination-covid-19/nancy/centre-de-vaccination-chru-nancy?pid=practice-190187&enable_cookies_consent=1
1883,"CD - US Uzerche / Maison d'Arrêt de Tulle","26 Rue Souham",19272,45.2751,1.76922,
1878,"MC - US Saint Martin de Ré / Maison Centrale de Saint-Martin-de-Ré"," Place des 3 Maisons",17369,46.2043,-1.364,
2357,"Centre de vaccination de Monein","Salle Paroissiale Rue Saint Girons",64393,43.3222,-0.579643,https://partners.doctolib.fr/centre-de-sante/monein/centre-de-vaccination-covid-19-monein?pid=practice-179588&enable_cookies_consent=1
976,"Salle des Fêtes SAMATAN"," Allee du 14 Juillet",32410,43.491,0.930439,https://partners.doctolib.fr/centre-de-sante/mirande/centre-de-vaccination-covid-19-cd-32-gers?pid=practice-165149&enable_cookies_consent=1
980,"Centre de vaccination de Mercy - MHRMT Maison des usagers (niveau 2 zone A)","1 allée du Château",57031,49.0832,6.24146,https://partners.doctolib.fr/hopital-public/metz/chr-de-metz-vaccination-covid?pid=practice-163721&enable_cookies_consent=1
2462,"Lycée Brière","2 Rue Vauban",51454,49.2239,4.02645,https://partners.doctolib.fr/centre-de-sante/reims/centres-de-vaccination-covid-19-grand-reims-fismes?pid=practice-184014&enable_cookies_consent=1
448,"BREST - CHU Site Morvan (réservé PS)","2 Avenue Maréchal Foch",29019,48.3953,-4.48761,https://partners.doctolib.fr/hopital-public/brest/chru-de-brest-vaccination-covid-19?pid=practice-162917&?speciality_id=5494&enable_cookies_consent=1
2279,"Grand Centre Niort (en cours de déclaration)","1 Place Martin Bastard",79191,46.3239,-0.46455,
2506,"Centre de vaccination Guy Cornély II (Raizet-ABYMES)","45 Rue des Roses",97101,16.2593,-61.5272,
2505,"Centre de vaccination éphémère de Terre de Haut","30 Rue de la Grande Anse",97131,15.8667,-61.5824,
1895,"CP - US de Poitiers-Vivonne / Centre Pénitentiaire de Poitiers-Vivonne"," Rue des Halles",86293,46.4258,0.261795,
195,"Centre de vaccination CH Avignon","305 Rue Raoul Follereau",84007,43.921,4.80475,https://partners.doctolib.fr/hopital-public/avignon/centre-hospitalier-d-avignon-vaccination-covid-avignon?pid=practice-162807&enable_cookies_consent=1
1551,"EMV- Mairie du 20e - Centre COVISAN 20","6 Place Gambetta",75120,48.8651,2.399,https://partners.doctolib.fr/centre-de-sante/paris/centre-de-vaccination-covid-19-ville-de-paris?pid=practice-166459&enable_cookies_consent=1
1197,"La Halle RISCLE"," Rue des Pyrénées",32344,43.657,-0.0860449,https://partners.doctolib.fr/centre-de-sante/mirande/centre-de-vaccination-covid-19-cd-32-gers?pid=practice-166216&enable_cookies_consent=1
2503,"Centre de vaccination Pole Caraïbes (ABYMES)","Aéroport Pole Caraïbes Ancien bâtiment des loueurs de voitures ",97101,16.2703,-61.5255,
261,"QUIMPER CHIC Site hôpital Laënnec (réservé PS)","14 Avenue Yves Thepot",29232,47.9878,-4.09496,https://partners.doctolib.fr/centre-depistage-covid/cornouaille/ch-cornouaille-vaccination-covid?speciality_id=5494&enable_cookies_consent=1
397,"Parc des expositions Jura Parc"," Rue du 19 mars 1962",39362,46.6759,5.53949,https://partners.doctolib.fr/centre-de-sante/dole/ars-de-bourgogne-franche-comte?pid=practice-163355&enable_cookies_consent=1
2512,"Centre de vaccination - CH de Tourcoing, Salle de fêtes, Mairie de Tourcoing","10 Place Victor Hassebroucq",59599,50.7236,3.16082,https://partners.doctolib.fr/centre-de-sante/tourcoing/centre-de-vaccination-covid-19-de-la-ville-de-tourcoing?pid=practice-190411&enable_cookies_consent=1
1429,"BEZIERS CENTRE HOSPITALIER ASTRAZENECA","2 Rue Valentin Hauy",34032,43.3397,3.25431,https://partners.doctolib.fr/hopital-public/beziers/centre-vaccination-covid-ch-beziers?pid=practice-164117&enable_cookies_consent=1
535,"IS-SUR-TILLE Salle des Capucins / Selongey centre culturel"," Rue des Capucins",21317,47.5222,5.10923,https://partners.doctolib.fr/centre-de-sante/is-sur-tille/centre-vaccination-is-sur-tille?speciality_id=5494&enable_cookies_consent=1
2267,"Centre de vaccination de SAMOENS - Espace Le Bois aux Dames","600 Rte du Lac aux Dames",74258,46.0798,6.71499,https://partners.doctolib.fr/centre-de-sante/samoens/centre-de-vaccination-covid-19-ville-de-samoens?pid=practice-180785&enable_cookies_consent=1
2523,"Centre de vaccination du SDIS PROGT","4560 Cogneau Ouest - PROGT",97307,4.87158,-52.3383,https://www.maiia.com/centre-de-vaccination/97351--matoury/centre-de-vaccination---sdis-progt
2359,VaccinAréna,"40 Rue de Lillebonne - KINDARENA",76540,49.4477,1.06327,https://partners.doctolib.fr/centre-de-sante/rouen/centre-de-vaccination-covid-vaccinarena-rouen?pid=practice-181232&enable_cookies_consent=1
1434,"MONTPELLIER- CHU MONTPELLIER LAPEYRONIE- ASTRAZENECA","371 rue du Doyen Gaston Giraud",34172,43.6295,3.85151,https://partners.doctolib.fr/hopital-public/montpellier/chu-de-montpellier-vaccination-covid-reserve-aux-professionnels-de-sante?pid=practice-166638&enable_cookies_consent=1
615,"DIJON Stade Gaston Gérard (au dessus de la boutique DFCO )","1 Rue du Stade",21231,47.3261,5.06793,https://partners.doctolib.fr/maison-de-sante/dijon/cpts-de-dijon-vaccination-covid-19?pid=practice-164619&enable_cookies_consent=1
1572,"EMV CH André Grégoire","56 Boulevard de la Boissière",93048,48.8784,2.45328,
636,"Fourchambault - salle polyvalente","1 Rue du 4 Septembre",58117,47.0206,3.08303,https://partners.doctolib.fr/centre-de-sante/fourchambault/vaccination-covid-fourchambault?speciality_id=5494&enable_cookies_consent=1
1528,"Centre de vaccination du centre hospitalier de Billom","3 Boulevard Saint - Roch",63040,45.7205,3.34355,https://partners.doctolib.fr/hopital-public/billom/centre-de-vaccination-ch-de-billom?pid=practice-165650&enable_cookies_consent=1
1960,"Centre de vaccination éphémère - Rians Sainte Solange"," ",18235,47.1342,2.54728,
1961,"Centre de vaccination -ANET éphémère","Salle de spectacle Dianetum Chemin des Cordeliers",28007,48.856,1.43953,
1524,"Centre de vaccination multisites UGECAM (Centres médicaux Masevaux, Jungholtz, Bouxwiller)"," Route du Sudel",68201,47.7654,6.98546,https://partners.doctolib.fr/centre-de-vaccinations-internationales/haut-rhin/centres-de-vaccination-covid-19-ugecam-haut-rhin?pid=practice-170520&enable_cookies_consent=1
669,"Communauté professionnelle territoriale de santé (CPTS) Sud est Grenoblois - Salle des fêtes","5 Rue du Chateau",38158,45.1495,5.75446,https://vaccination-covid.keldoc.com/cabinet-medical/eybens-38320/cpts-sud-est-grenoblois/cpts-sud-est-grenoblois?cabinet=16624&specialty=144
1027,"CH DE DECAZEVILLE","60 Rue Prosper Alfaric",12089,44.5599,2.26256,https://partners.doctolib.fr/hopital-public/decazeville/centre-de-vaccination-covid-ch-decazeville?pid=practice-165118?speciality_id=5494&enable_cookies_consent=1
2008,"Vaccibus SDIS"," ",37261,47.3849,0.668143,
2366,"UHSI PITIE SALPETRIERE","47 Boulevard de l’Hôpital",75113,48.8402,2.36319,
1976,"Centre de vaccination éphémère de La Ville aux Clercs"," ",41275,47.9189,1.08677,
728,"MONTPELLIER CHU Montpellier Centre Antonin Balmès","39 Avenue Charles Flahault",34172,43.6263,3.85729,https://partners.doctolib.fr/hopital-public/montpellier/chu-de-montpellier-vaccination-covid?speciality_id=5494&enable_cookies_consent=1
1962,"Centre de vaccination - en attente (36)"," ",36044,46.8118,1.69174,
1745,"Centre de vaccination COVID 19 : Site de Salazie Village","75 Rue Georges Pompidou",97421,-21.0272,55.541,https://vaccination-covid.keldoc.com/cabinet-medical/salazie-97433/centre-de-vaccination-ephemere-pole-multi-service/centre-de-vaccination-ephemere-pole-multi-service?cabinet=52685&specialty=496
722,"Centre de vaccination du centre de santé des Cévennes","327 Rue des Patureaux",07078,45.2497,4.70207,https://partners.doctolib.fr/cabinet-pluridisciplinaire/annonay/maison-de-sante-des-cevennes?speciality_id=5494&enable_cookies_consent=1
737,"Centre de vaccination de la communauté professionnelle territoriale de santé de Venissieux -  Salle communale Irène Joliot-Curie","68 Boulevard Irène Joliot Curie",69259,45.7138,4.87943,https://partners.doctolib.fr/centre-depistage-covid/venissieux/cdhs-centre-de-sante-et-prevention-venissieux-vaccination-covid?speciality_id=5494&enable_cookies_consent=1
481,"Centre de Gestion de la Covid-19 (CHOG)","15 Rue Simon",97311,5.49928,-54.0309,https://www.maiia.com/centre-de-vaccination/97320-saint-laurent-du-maroni/centre-de-vaccination---ch-de-l-ouest-guyanais
1568,"Centre de vaccination de Saint-Jean-en-Royans","6 Rue de l'industrie",26307,45.0175,5.2895,https://partners.doctolib.fr/centre-de-sante/saint-jean-en-royans/centre-de-vaccination-saint-jean-en-royans?pid=practice-172946&enable_cookies_consent=1
1989,"Centre de vaccination - Egletons","18 Rue du Bosquet",19073,45.4017,2.03581,https://partners.doctolib.fr/centre-de-sante/egletons/centre-de-vaccination-covid-19-espace-ventadour-egletons?pid=practice-176032&enable_cookies_consent=1
2010,"Site de vaccination Moselle et Madon - Centre culturel Jean l'Hôte"," Place Ernest Poirson",54397,48.6148,6.10597,https://partners.doctolib.fr/vaccination-covid-19/neuves-maisons/centre-de-vaccination-covid-19-centre-culturel-jean-l-hote-neuves-maisons?pid=practice-188305&enable_cookies_consent=1
511,"CH de Kourou - délocalisé à la médiathèque de Kourou "," Rue Thomas Guidiglo",97304,5.16353,-52.6448,https://www.maiia.com/centre-de-vaccination/97310-kourou/centre-de-vaccination---ch-de-kourou---mediatheque
1316,"Lieu de vaccination de ST-MIHIEL (Palais Abbatial)","6 Rue du Palais de Justice",55463,48.8885,5.54112,https://www.maiia.com/centre-de-vaccination/55300-saint-mihiel/centre-de-vaccination---saint-mihiel
800,"Site de Sotteville - salle des fêtes"," Place de l'hôtel de Ville",76681,49.414,1.08904,https://partners.doctolib.fr/centre-de-sante/sotteville-les-rouen/centre-de-vaccination-sotteville-les-rouen?speciality_id=5494&enable_cookies_consent=1
2367,"UHSA - VILLEJUIF","54 Avenue de la République",94076,48.7885,2.35885,
2564,"Equipe Mobile Vaccination Cantal - SDIS 15","86 Avenue de Conthe",15014,44.9131,2.4259,
2368,"UHSA - ORLEANS","1 Route de Chanteau",45400,47.9454,1.94673,
736,"LORIENT - Bâtiment Onc'Oriant (GHBS)","1 Rampe de l'hôpital des armées",56121,47.753,-3.35595,https://vaccination-covid.keldoc.com/centre-hospitalier-regional/lorient-56100/groupe-hospitalier-bretagne-sud-lorient-hopital-du-scorff/groupe-hospitalier-bretagne-sud-lorient-hopital-du-scorff?cabinet=16571&specialty=144
1758,"Centre de Vaccination Territorial et Hospitalier de Tournon","49-53 Rue de Chapotte",07324,45.0604,4.84544,https://partners.doctolib.fr/centre-de-vaccinations-internationales/tournon-sur-rhone/vaccination-covid-19-ch-tournon?pid=practice-174270&enable_cookies_consent=1
850,"Centre de vaccination - CPTS Val de Sambre La LUNA","1 Place de Wattignies-la-Victoire",59392,50.2753,3.96977,https://www.maiia.com/centre-de-vaccination/59600-maubeuge/centre-de-vaccination---place-de-wattignies
1322,"Centre de vaccination de BOGNY-SUR-MEUSE"," Place Danton",08081,49.8513,4.76608,https://partners.doctolib.fr/centre-de-sante/sedan/centre-de-vaccination-covid-ars-ardennes?pid=practice-168268&enable_cookies_consent=1
1662,"EMV Clichy-sous-bois","3 Place du 11 novembre 1918",93014,48.9107,2.5461,https://partners.doctolib.fr/centre-de-sante/clichy-sous-bois/centre-municipal-de-vaccination-covid-charlotte-petit?pid=practice-165986&enable_cookies_consent=1
1319,"Centre de vaccination de GIVET"," Rue Berthelot",08190,50.1413,4.82581,https://partners.doctolib.fr/centre-de-sante/sedan/centre-de-vaccination-covid-ars-ardennes?pid=practice-167627&enable_cookies_consent=1
60,"CH Narbonne"," Boulevard Dr Lacroix",11262,43.1808,2.99935,https://partners.doctolib.fr/hopital-public/narbonne/centre-de-vaccination-covid-19-ch-narbonne-reserve-aux-personnes-eligibles?speciality_id=5494&enable_cookies_consent=1
1255,"Nancy - Hôpital Central"," Rue Lionnois",54395,48.6839,6.19336,https://partners.doctolib.fr/vaccination-covid-19/nancy/centre-de-vaccination-covid-19-chru-nancy-central?pid=practice-190180&enable_cookies_consent=1
2622,"Centre de vaccination éphémère de La Désirade","Rue Philippe PAIN Le Bourg",97110,16.3036,-61.0708,
827,"Centre de vaccination territorial Centre Val d'Oise","85 Rue du Général de Gaulle",95210,48.9684,2.30465,https://vaccination-covid.keldoc.com/cabinet-medical/enghien-les-bains-95880/vaccination-plaine-vallee-enghien-les-bains/vaccination-plaine-vallee-enghien-les-bains?cabinet=16606&specialty=496
731,"Centre de vaccination de Marie Galante","1005 p Section Ducos",97112,15.8923,-61.2925,https://vaccination-covid.keldoc.com/centre-hospitalier/grand-bourg-97112/centre-hospitalier-de-sainte-marie/centre-hospitalier-de-sainte-marie?cabinet=16937&specialty=144
1015,"Centre de vaccination COVID 19 SAVOIEXPO","1725 Avenue du Grand Ariétaz",73065,45.5821,5.89909,https://partners.doctolib.fr/centre-de-sante/chambery/chambery-centre-de-vaccination-covid-19?speciality_id=5494&enable_cookies_consent=1
87,"Centre de vaccination - Centre Hospitalier Moulins-Yzeure","10 Avenue du Général de Gaulle",03190,46.5703,3.32521,https://www.maiia.com/centre-de-vaccination/03000-moulins/centre-de-vaccination--moulins---yzeure
701,"Centre de vaccination - Salle polyvalente de Beaumont-en-Véron","Ateliers 13-14-15 rue Yvette Cauchois",37022,47.1944,0.183514,https://partners.doctolib.fr/centre-de-vaccinations-internationales/bourgueil/centre-vaccination-cpts-rabelaisie?speciality_id=5494&enable_cookies_consent=1
1889,"CP - centre pénitentiaire de Mont de Marsan / Centre Pénitentiaire de Mont-De-Marsan"," Chemin de Pémégnan",40192,43.8971,-0.461212,
2038,"Droué Centre éphémère","3 Rue de la Poste",41075,48.0406,1.07625,
2055,Cressesac," combe de la salé",46083,45.0198,1.51701,
1075,"Centre de vaccination de Baume les Dames","3 Place de l'Abbaye",25047,47.3523,6.36225,https://partners.doctolib.fr/maison-de-sante/baume-les-dames/centre-de-vaccination-petr-doubs-centrale?pid=practice-164984?speciality_id=5494&enable_cookies_consent=1
2623,"CV éphémère Cléry-Saint-André"," Rue du Stade",45098,47.8208,1.75582,
801,"Site Duclair - salle des hallettes"," ",76222,49.4823,0.875602,https://partners.doctolib.fr/cabinet-medical/duclair/centre-de-vaccination-covid-19-duclair?speciality_id=5494&enable_cookies_consent=1
1313,"Lieu de vaccination de VOID-VACON - MSP","1 Chemin des Dimes a Vacon",55573,48.6691,5.60088,https://www.maiia.com/centre-de-vaccination/55190-void-vacon/centre-de-vaccination---void-vacon
1314,"Lieu de vaccination de GONDRECOURT - MSP","3 Place de la Corvee",55215,48.5119,5.5048,https://www.maiia.com/centre-de-vaccination/55400-etain/centre-de-vaccination---de-meuse
2030,"MSP Lalbenque","130 impasse de la vignasse",46148,44.3371,1.54419,
1309,"Centre de vaccination d'Epinal (Allée des Chênes))"," Allée des Chênes",88160,48.1861,6.47144,https://partners.doctolib.fr/hopital-public/epinal/ch-emile-durkheim?pid=practice-164046&enable_cookies_consent=1
2229,"Grand centre 21","1014 Avenue du XXIème siècle",21231,47.3551,5.05898,https://partners.doctolib.fr/centre-de-sante/dijon/cpts-de-dijon-vaccination-covid-19-dijon?pid=practice-184121&enable_cookies_consent=1
1307,"Centre de vaccination de Gerardmer ","16 Rue Charles de Gaulle",88196,48.0682,6.87333,https://partners.doctolib.fr/hopital-public/gerardmer/ch-de-gerardmer?pid=practice-163880&enable_cookies_consent=1
1326,"Salle des fêtes La Châtre / CPTS Boischaut Sud","4 avenue André Malraux",36046,46.5803,1.98652,https://partners.doctolib.fr/centre-depistage-covid/boischaut-sud/centre-de-vaccination-covid-du-boischaut-sud?pid=practice-164853&enable_cookies_consent=1
2022,"Bourges Vaccinodrome"," ",18033,47.081,2.39878,
478,"Centre de vaccination de Saint- Claude ","10 Rue Rosset",39478,46.3885,5.86611,https://partners.doctolib.fr/centre-de-sante/dole/ars-de-bourgogne-franche-comte?pid=practice-173190&enable_cookies_consent=1
2244,"Centre de vaccination CPAM78","22 Rue des Barrières",78498,48.9296,2.047,
785,"Centre de vaccination de CAP PERIAZ ANNECY","100 Avenue de Periaz - SEYNOD",74010,45.874,6.08588,https://partners.doctolib.fr/centre-de-sante/annecy/centre-de-vaccination-covid-cap-periaz-annecy?speciality_id=5494&enable_cookies_consent=1
944,"Centre de vaccination de Mérignac","4 Impasse des Caducées",16216,45.6965,-0.0821056,https://partners.doctolib.fr/centre-de-sante/merignac/centre-vaccination-covid-de-merignac?speciality_id=5494&enable_cookies_consent=1
2624,"Centre vaccination SDIS","223 Rue de la Sauvegarde",12202,44.3762,2.54549,https://partners.doctolib.fr/vaccination-covid-19/rodez/centre-de-vaccination-covid-19-sdis-12?pid=practice-192722&enable_cookies_consent=1
2009,"Site de vaccination de Vézelise","21 Place de l’Hotel de Ville",54563,48.4876,6.08923,https://partners.doctolib.fr/vaccination-covid-19/neuves-maisons/centre-de-vaccination-covid-19-g20-drive-vezelise?pid=practice-188307&enable_cookies_consent=1
739,"QUIMPERLE - Hôpital de Villeneuve (GHBS) (réservé aux professionnels des secteurs de la santé et du médico-social)","20 bis Avenue Général Leclerc",29233,47.8698,-3.55622,https://vaccination-covid.keldoc.com/centre-hospitalier-regional/lorient-56100/groupe-hospitalier-bretagne-sud-lorient-hopital-du-scorff/groupe-hospitalier-bretagne-sud-lorient-hopital-du-scorff?cabinet=16579&specialty=144
259,"ST-MALO - CH","1 Rue de la Marne",35288,48.6383,-2.00786,https://partners.doctolib.fr//centre-depistage-covid/saint-malo-et-dinan/gh-rance-emeraude-vaccination-covid?pid=practice-163095&enable_cookies_consent=1
2068,"Point de vaccination Saint-Aignan"," ",41198,47.2469,1.34976,
2045,"Savigny Sur Braye centre éphémère"," ",41238,47.8796,0.80959,
1866,"MA - USMP de Fontenay-le-Comte / Maison d'Arrêt de Fontenay-le-Comte","30 Rue Rabelais",85092,46.468,-0.812877,
2025,"Centre de vaccination de Nancy - Salle des fêtes de Gentilly","14 Rue Capitaine Guynemer",54395,48.6998,6.14003,https://partners.doctolib.fr/vaccination-covid-19/nancy/centre-de-vaccination-chru-nancy?pid=practice-190188&enable_cookies_consent=1
612,"Centre de vaccination MONTCEAU LES MINES - Salle l'Embarcadère","36 Quai Jules Chagot",71306,46.6768,4.36099,https://partners.doctolib.fr/centre-de-sante/montceau-les-mines/centre-de-vaccination-de-montceau-les-mines?speciality_id=5494&enable_cookies_consent=1
2091,"Centre de Vaccination Ambulatoire de VILLENEUVE LE ROI","Gymnase Daniel Fery avenue du 8 mai 1945",94077,48.7318,2.40633,
134,"CENTRE HOSPITALIER VALS D'ARDECHE - Bâtiment Esperanto 1er étage","2  avenue Pasteur",07186,44.7308,4.58376,
816,"CENTRE HOSPITALIER  DE ROANNE ","28 Rue de Charlieu RDC du Pôle Femmes Enfants",42187,46.0416,4.07585,https://partners.doctolib.fr/centre-de-sante/roanne/centre-de-vaccination-covid-ch-roanne?pid=practice-177615&enable_cookies_consent=1
2245,"CV mobile -Dordogne- SDIS/CD","5 Route d’Atur (Boulazac)",24053,45.1767,0.731938,
1239,"Centre de vaccination - Pôle Médical Coeur de Gâtine","13 c Rue de Brossard",79202,46.6528,-0.220923,https://partners.doctolib.fr/hopital-public/bressuire/vaccination-nord-deux-sevres?pid=practice-164768&enable_cookies_consent=1
2106,"PLEUMEUR BODOU - opérations éphémères SDIS (obsolète)"," Route du Radôme",22198,48.7814,-3.52707,https://vaccination-covid.keldoc.com/maison-de-sante/pleumeur-bodou-22560/centre-de-vaccination-ephemere-sdis-pleumeur-bodou/centre-de-vaccination-ephemere-sdis-pleumeur-bodou?cabinet=17301&specialty=496
256,"MORLAIX - CH anciens locaux EFS (réservé PS)","15 Rue de Kersaint-gilly",29151,48.5693,-3.83016,https://partners.doctolib.fr/hopital-public/morlaix/centre-de-vaccination-covid-ville-de-morlaix?pid=practice-166075&enable_cookies_consent=1
1209,"Centre Hospitalier Louis Constant Fleming"," Concordia, Marigot",,18.0641,-63.0734,https://partners.doctolib.fr/hopital-public/saint-martin/centre-de-vaccination-covid-19-ch-louis-constant-fleming-saint-martin?pid=practice-166932&enable_cookies_consent=1
818,"centre de vaccination d' Ambert - Maison de santé pluriprofessionnelle Ambert","Salle Coral Rue Pierre de Coubertin",63003,45.5406,3.7507,https://partners.doctolib.fr/hopital-public/ambert/centre-hospitalier-d-ambert-vaccination-covid-19?speciality_id=5494&enable_cookies_consent=1
825,"Centre de vaccination de l'Hôpital du Gier","19 Rue Victor Hugo",42207,45.4748,4.51649,https://partners.doctolib.fr/hopital-public/saint-chamond/centre-de-vaccination-covid-19-hopital-du-gier?pid=practice-171845&enable_cookies_consent=1
2049,"Centre de vaccination COVID Ad Hoc d'Ugine","65 Av du Docteur Chavent",73303,45.752,6.42211,
528,"Centre Vaccination - CHInA site SEDAN","2 Avenue du Général Margueritte",08409,49.7054,4.94014,https://partners.doctolib.fr/hopital-public/charleville-mezieres/centre-hospitalier-intercommunal-nord-ardennes-charleville-fumay-sedan?pid=practice-164145&enable_cookies_consent=1
1230,"Centre de vaccination de Metz - Clinique Claude Bernard (Entrée B)","97 Rue Claude Bernard",57463,49.1148,6.21111,https://partners.doctolib.fr/clinique-privee/metz/centre-de-vaccination-metz-elsan?speciality_id=5494&enable_cookies_consent=1
2122,"Centre de vaccination COVID Ad Hoc de Sainte-Hélène-sur-Isère","2000 Che du Roy",73241,45.6137,6.30902,
2096,"MSP relai Mehun sur Yèvre","45 Rue Augustin Guignard",18141,47.1456,2.21734,
1598,"Centre de vaccination - St HERBLAIN - Complexe du Vigneau"," Boulevard Salvador Allende",44162,47.2191,-1.62093,https://partners.doctolib.fr/centre-de-sante/saint-herblain/centre-de-vaccination-de-saint-herblain-complexe-sportif-du-vigneau?pid=practice-177796&enable_cookies_consent=1
1125,"Centre de Vaccination - LE MANS- Courboulay","2 Rue Paul Courboulay",72181,48.0056,0.192037,https://partners.doctolib.fr/centre-de-sante/le-mans/vaccination-covid-19-ctps-le-mans-agglo?pid=practice-164814&enable_cookies_consent=1
407,"Centre de vaccination de la Trinité"," Rue Jean Eugène Fatier - Maison médicale de garde de la Trinité",97230,14.7369,-60.965,https://vaccination-covid.keldoc.com/centre-hospitalier/trinite-97220/centre-hospitalier-louis-domergue-trinite/centre-hospitalier-louis-domergue-trinite?cabinet=16619&specialty=144
2050,"Centre de vaccination COVID Ad Hoc de La Bâthie","45 Pl Marcel Pagnol",73032,45.6275,6.44752,
2109,"Centre de vaccination de Cerizay - CPTS du Bressuirais","5 Place du Saint-Pere",79062,46.8212,-0.671963,https://partners.doctolib.fr/centre-de-sante/moncoutant-sur-sevre/centre-de-vaccination-de-moncoutant-sur-sevre?pid=practice-177609&enable_cookies_consent=1
197,"CPTS Synapse Comtat Venaissin / CH de Carpentras"," Rue Joseph Cugnat",84031,44.0461,5.029,https://partners.doctolib.fr/vaccination-covid-19/carpentras/centre-de-vaccination-covid-de-carpentras?pid=practice-186470&enable_cookies_consent=1
2051,"Centre de vaccination - Commune Etaples, Salle de la Pyramide "," Rue de la Pierre Trouée",62318,50.5195,1.63937,https://partners.doctolib.fr/centre-de-sante/etaples/centre-de-vaccination-ephemere-salle-de-la-pyramide?pid=practice-177445&enable_cookies_consent=1
2137,"Equipe mobile du CDHS","110 Avenue Barthélémy Buyer",69389,45.763,4.80186,
2098,"MSP relai Avord","2 Rue Désiré Deschamps",18018,47.033,2.65217,https://partners.doctolib.fr/centre-de-sante/avord/centre-vaccination-avord-baugy?pid=practice-169561&enable_cookies_consent=1
1920,"CP - US US-SMPR-CSAPA CPM Baumettes / Etablissement spécialisé pour mineurs de Marseille"," Montée Commandant de Robien",13211,43.2898,5.48264,
2568,"Centre de vaccination éphémère de PEYREHORADE","20 Route du Herrou",40269,43.6076,-1.13484,
2298,"Centre de vaccination éphémère de Fosses","15 Place du 19 mars",95250,49.0991,2.51555,
2119,"SARZEAU - Médiathèque"," rue du père coudrin",56240,47.5263,-2.76968,https://partners.doctolib.fr/centre-de-sante/sarzeau/gh-broceliande-atlantique-ghba-centre-de-vaccination-covid-sarzeau-sarzeau?pid=practice-176854&enable_cookies_consent=1
2114,"CDV31 Equipe mobile ADIMEP","66 Chemin du Vallon",31555,43.5587,1.45674,
1364,"PONTAILLER-SUR-SAONE maison des services"," Rue des Saucis",21496,47.3128,5.40764,https://partners.doctolib.fr/centre-de-sante/auxonne/centre-de-vaccination-covid-19-auxonne?pid=practice-166590&enable_cookies_consent=1
2243,"Maison de santé pluridisciplinaire D'Eymet","12 Rue du 6 Juin 1944",24167,44.6667,0.400244,
2083,"Chateauneuf en Thymerais centre éphémère","Gymnase Martiel Taugourdeau 4 bis rue du chemin de Fer",28089,48.5811,1.24213,
2126,"Centre de vaccination COVID Ad Hoc de Challes-les-Eaux","171 Avenue Charles Pillet",73064,45.5474,5.98356,
2099,"MSP relai Baugy","3 Rue du Chancelier",18023,47.081,2.72824,https://partners.doctolib.fr/centre-de-sante/avord/centre-vaccination-avord-baugy?pid=practice-169562&enable_cookies_consent=1
1360,"CHR Orléans La Source - réservé aux professionnels de santé","14 Avenue de l’Hôpital",45234,47.8381,1.92463,https://partners.doctolib.fr/hopital-public/orleans/centre-de-vaccination-covid-chr-orleans-la-source?pid=practice-163885&enable_cookies_consent=1
1377,"Centre éphémère de vaccination - Ville de Basse-Terre","3 Rue Joseph Ignace (près du Bowling)",97105,15.9894,-61.7251,
2084,"Société Delpharm"," Rue de L'Isle",28359,48.7625,1.23878,
2127,"Centre de vaccination COVID Ad Hoc de COGNIN","16 R de la Forgerie",73087,45.5605,5.89493,https://partners.doctolib.fr/centre-de-sante/chambery/centre-de-vaccination-grand-chambery?pid=practice-178865&enable_cookies_consent=1
2100,"MSP relai Sancergues","14 r Pauline Lapautre",18240,47.1561,2.91541,https://partners.doctolib.fr/maison-de-sante/sancergues/centre-de-vaccination-covid-19-ville-de-sancergues?pid=practice-171982&enable_cookies_consent=1
1385,"Centre Hauts de Bienne - Morez","5 Espace Lamartine",39368,46.5221,6.02154,https://partners.doctolib.fr/centre-de-sante/dole/ars-de-bourgogne-franche-comte?pid=practice-163395&enable_cookies_consent=1
1369,"CV éphémère - Avord","14 Rue Désiré Deschamps",18018,47.0317,2.65039,https://partners.doctolib.fr/centre-de-sante/avord/centre-vaccination-avord-baugy?pid=practice-169561&enable_cookies_consent=1
2249,"DAC 92 Nord","9 Allée des Barbanniers",92036,48.937,2.3047,
1378,"Centre éphémère de vaccination - Commune de Vieux Habitants","Ancien dispensaire Rue Henri Dunant",97134,16.06,-61.7646,https://vaccination-covid.keldoc.com/cabinet-medical/vieux-habitants-97119/dispensaire-departemental-d-hygiene-sociale/dispensaire-departemental-d-hygiene-sociale?cabinet=17006&specialty=144
933,"Centre de vaccination de Cernay-les-Reims - Salle de La Marelle","1 Place de la Republique",51105,49.264,4.10425,https://partners.doctolib.fr/centre-de-vaccinations-internationales/reims/centres-de-vaccination-grand-reims?pid=practice-164806&enable_cookies_consent=1
2250,"DAC 92 Centre"," ",92073,48.8698,2.21905,
2086,"Vaccinobus Jura","8 Rue de la Prefecture",39300,46.672,5.55172,
2251,"DAC 92 SUD","4 Rue des Carnets",92023,48.7906,2.26152,
1824,"CP - US / Centre Pénitentiaire de Metz","1 Rue de la Source",57463,49.0781,6.19126,
2625,"CV éphémère de Neuville-aux-Bois","4 Rue de la Pichardière",45224,48.0692,2.05373,
2626,"CV éphémère de la Ferté-Saint-Aubin"," Espace Madeleine de Sologne - Place de la gare",45146,47.72,1.94101,
